[164000.00]
$GPGGA,174226.00,5540.4323367,N,03730.3259483,E,4,35,0.4,215.2321,M,14.755,M,1.0,0031*71
[164001.00]
$GPGGA,174227.00,5540.4323359,N,03730.3259496,E,4,35,0.4,215.2302,M,14.755,M,1.0,0031*78
[164002.00]
$GPGGA,174228.00,5540.4323359,N,03730.3259490,E,4,35,0.4,215.2325,M,14.755,M,1.0,0031*74
[164003.00]
$GPGGA,174229.00,5540.4323377,N,03730.3259490,E,4,35,0.4,215.2287,M,14.755,M,1.0,0031*70
[164004.00]
$GPGGA,174230.00,5540.4323369,N,03730.3259493,E,4,35,0.4,215.2301,M,14.755,M,1.0,0031*7B
[164005.00]
$GPGGA,174231.00,5540.4323356,N,03730.3259483,E,4,35,0.4,215.2301,M,14.755,M,1.0,0031*77
[164006.00]
$GPGGA,174232.00,5540.4323361,N,03730.3259490,E,4,35,0.4,215.2240,M,14.755,M,1.0,0031*76
[164007.00]
$GPGGA,174233.00,5540.4323363,N,03730.3259486,E,4,35,0.4,215.2282,M,14.755,M,1.0,0031*7C
[164008.00]
$GPGGA,174234.00,5540.4323361,N,03730.3259477,E,4,35,0.4,215.2268,M,14.755,M,1.0,0031*73
[164009.00]
$GPGGA,174235.00,5540.4323367,N,03730.3259479,E,4,35,0.4,215.2284,M,14.755,M,1.0,0031*78
[164010.00]
[164010.00] ---PWR OFF---
[164010.00] ---PWR OFF---
[164010.00] ---PWR OFF---
[164011.00]
[164012.00]
[164013.00]
[164014.00]
[164015.00]
[164016.00]
[164017.00]
[164018.00]
[164019.00]
[164020.00]
[164021.00]
[164022.00]
[164023.00]
[164024.00]
[164025.00]
[164026.00] ---PWR ON---
[164026.00]
[164027.00]
[164028.00]
$GPGGA,000124.00,0000.0000000,N,00000.0000000,E,0,00,0.0,-6378154.1620,M,17.162,M,,*7B
[164029.00]
$GPGGA,000125.00,0000.0000000,N,00000.0000000,E,0,00,0.0,-6378154.1620,M,17.162,M,,*7A
[164030.00]
$GPGGA,000126.00,0000.0000000,N,00000.0000000,E,0,00,0.0,-6378154.1620,M,17.162,M,,*79
[164031.00]
$GPGGA,000127.00,0000.0000000,N,00000.0000000,E,0,00,0.0,-6378154.1620,M,17.162,M,,*78
[164032.00]
$GPGGA,000128.00,0000.0000000,N,00000.0000000,E,0,00,0.0,-6378154.1620,M,17.162,M,,*77
[164033.00]
$GPGGA,000129.00,0000.0000000,N,00000.0000000,E,0,00,0.0,-6378154.1620,M,17.162,M,,*76
[164034.00]
$GPGGA,000130.00,0000.0000000,N,00000.0000000,E,0,00,0.0,-6378154.1620,M,17.162,M,,*7E
[164035.00]
$GPGGA,174305.00,5540.4324052,N,03730.3267739,E,1,07,1.3,210.2077,M,14.755,M,,0031*54
[164036.00]
$GPGGA,174306.00,5540.4324427,N,03730.3267737,E,1,07,1.3,210.3696,M,14.755,M,,0031*57
[164037.00]
$GPGGA,174307.00,5540.4330005,N,03730.3282423,E,1,06,1.7,215.1277,M,14.755,M,,0031*53
[164038.00]
$GPGGA,174308.00,5540.4331427,N,03730.3281770,E,1,06,1.7,215.1775,M,14.755,M,,0031*58
[164039.00]
$GPGGA,174309.00,5540.4324884,N,03730.3264931,E,1,07,1.3,210.1316,M,14.755,M,,0031*59
[164040.00]
$GPGGA,174310.00,5540.4324960,N,03730.3265338,E,1,07,1.3,210.5298,M,14.755,M,,0031*5B
[164041.00]
$GPGGA,174311.00,5540.4324884,N,03730.3265258,E,1,07,1.3,210.4763,M,14.755,M,,0031*56
[164042.00]
$GPGGA,174312.00,5540.4325025,N,03730.3265689,E,1,07,1.3,210.4613,M,14.755,M,,0031*59
[164043.00]
$GPGGA,174313.00,5540.4325003,N,03730.3265748,E,1,07,1.3,210.6242,M,14.755,M,,0031*52
[164044.00]
$GPGGA,174310.00,5540.4329846,N,03730.3261093,E,1,22,0.6,212.0771,M,14.755,M,,0031*53
[164045.00]
$GPGGA,174311.00,5540.4324773,N,03730.3261234,E,5,22,0.6,213.6001,M,14.755,M,1.0,0031*75
[164046.00]
$GPGGA,174312.00,5540.4324673,N,03730.3261278,E,5,22,0.6,213.6350,M,14.755,M,1.0,0031*78
[164047.00]
$GPGGA,174313.00,5540.4324531,N,03730.3261201,E,5,22,0.6,213.7244,M,14.755,M,1.0,0031*77
[164048.00]
$GPGGA,174314.00,5540.4324411,N,03730.3260969,E,5,22,0.6,213.8688,M,14.755,M,1.0,0031*7C
[164049.00]
$GPGGA,174315.00,5540.4324290,N,03730.3260780,E,5,22,0.6,213.9978,M,14.755,M,1.0,0031*7A
[164050.00]
$GPGGA,174316.00,5540.4324194,N,03730.3260603,E,5,22,0.5,214.1183,M,14.755,M,1.0,0031*74
[164051.00]
$GPGGA,174317.00,5540.4324089,N,03730.3260455,E,5,24,0.5,214.2261,M,14.755,M,1.0,0031*73
[164052.00]
$GPGGA,174318.00,5540.4324016,N,03730.3260320,E,5,24,0.5,214.3219,M,14.755,M,1.0,0031*71
[164053.00]
$GPGGA,174319.00,5540.4323927,N,03730.3260201,E,5,24,0.5,214.4107,M,14.755,M,1.0,0031*75
[164054.00]
$GPGGA,174320.00,5540.4323860,N,03730.3260089,E,5,24,0.5,214.4900,M,14.755,M,1.0,0031*70
[164055.00]
$GPGGA,174321.00,5540.4323441,N,03730.3259378,E,4,24,0.5,215.2039,M,14.755,M,1.0,0031*7C
[164056.00]
$GPGGA,174322.00,5540.4323436,N,03730.3259374,E,4,24,0.5,215.2056,M,14.755,M,1.0,0031*7A
[164057.00]
$GPGGA,174323.00,5540.4323445,N,03730.3259371,E,4,24,0.5,215.2004,M,14.755,M,1.0,0031*7D
[164058.00]
$GPGGA,174324.00,5540.4323433,N,03730.3259394,E,4,24,0.5,215.2058,M,14.755,M,1.0,0031*79
[164059.00]
$GPGGA,174325.00,5540.4323426,N,03730.3259370,E,4,24,0.5,215.2053,M,14.755,M,1.0,0031*7D
[164100.00]
$GPGGA,174326.00,5540.4323437,N,03730.3259380,E,4,24,0.5,215.2004,M,14.755,M,1.0,0031*73
[164101.00]
$GPGGA,174327.00,5540.4323432,N,03730.3259388,E,4,24,0.5,215.2040,M,14.755,M,1.0,0031*7F
[164102.00]
$GPGGA,174328.00,5540.4323431,N,03730.3259395,E,4,24,0.5,215.2020,M,14.755,M,1.0,0031*79
[164103.00]
$GPGGA,174329.00,5540.4323440,N,03730.3259365,E,4,24,0.5,215.2004,M,14.755,M,1.0,0031*77
[164104.00]
$GPGGA,174330.00,5540.4323440,N,03730.3259373,E,4,24,0.5,215.1987,M,14.755,M,1.0,0031*79
[164105.00]
$GPGGA,174331.00,5540.4323427,N,03730.3259355,E,4,24,0.4,215.1973,M,14.755,M,1.0,0031*77
[164106.00]
$GPGGA,174332.00,5540.4323432,N,03730.3259377,E,4,28,0.4,215.1997,M,14.755,M,1.0,0031*76
[164107.00]
$GPGGA,174333.00,5540.4323445,N,03730.3259407,E,4,28,0.4,215.1911,M,14.755,M,1.0,0031*79
[164108.00]
$GPGGA,174334.00,5540.4323458,N,03730.3259408,E,4,28,0.4,215.1950,M,14.755,M,1.0,0031*78
[164109.00]
$GPGGA,174335.00,5540.4323448,N,03730.3259404,E,4,28,0.4,215.1913,M,14.755,M,1.0,0031*73
[164110.00]
$GPGGA,174336.00,5540.4323446,N,03730.3259426,E,4,28,0.4,215.1906,M,14.755,M,1.0,0031*7A
[164111.00]
$GPGGA,174337.00,5540.4323450,N,03730.3259412,E,4,28,0.4,215.1911,M,14.755,M,1.0,0031*7D
[164112.00]
$GPGGA,174338.00,5540.4323456,N,03730.3259432,E,4,28,0.4,215.1928,M,14.755,M,1.0,0031*7C
[164113.00]
$GPGGA,174339.00,5540.4323450,N,03730.3259427,E,4,28,0.4,215.1894,M,14.755,M,1.0,0031*79
[164114.00]
$GPGGA,174340.00,5540.4323443,N,03730.3259416,E,4,28,0.4,215.1927,M,14.755,M,1.0,0031*7E
[164115.00]
$GPGGA,174341.00,5540.4323451,N,03730.3259428,E,4,35,0.4,215.1896,M,14.755,M,1.0,0031*76
[164116.00]
$GPGGA,174342.00,5540.4323504,N,03730.3259403,E,4,35,0.4,215.1814,M,14.755,M,1.0,0031*77
[164117.00]
$GPGGA,174343.00,5540.4323490,N,03730.3259406,E,4,35,0.4,215.1822,M,14.755,M,1.0,0031*7A
[164118.00]
$GPGGA,174344.00,5540.4323515,N,03730.3259403,E,4,35,0.4,215.1796,M,14.755,M,1.0,0031*74
[164119.00]
$GPGGA,174345.00,5540.4323508,N,03730.3259416,E,4,35,0.4,215.1802,M,14.755,M,1.0,0031*7F
[164120.00]
$GPGGA,174346.00,5540.4323513,N,03730.3259415,E,4,35,0.4,215.1781,M,14.755,M,1.0,0031*71
[164121.00]
$GPGGA,174347.00,5540.4323490,N,03730.3259403,E,4,35,0.4,215.1819,M,14.755,M,1.0,0031*73
[164122.00]
$GPGGA,174348.00,5540.4323488,N,03730.3259416,E,4,35,0.4,215.1803,M,14.755,M,1.0,0031*7A
[164123.00]
$GPGGA,174349.00,5540.4323487,N,03730.3259400,E,4,35,0.4,215.1788,M,14.755,M,1.0,0031*7F
[164124.00]
$GPGGA,174350.00,5540.4323497,N,03730.3259412,E,4,35,0.4,215.1814,M,14.755,M,1.0,0031*7F
[164125.00]
$GPGGA,174351.00,5540.4323498,N,03730.3259415,E,4,35,0.4,215.1805,M,14.755,M,1.0,0031*76
[164126.00]
$GPGGA,174352.00,5540.4323510,N,03730.3259409,E,4,35,0.4,215.1812,M,14.755,M,1.0,0031*7F
[164127.00]
$GPGGA,174353.00,5540.4323440,N,03730.3259438,E,4,35,0.4,215.1993,M,14.755,M,1.0,0031*70
[164128.00]
$GPGGA,174354.00,5540.4323385,N,03730.3259465,E,4,35,0.4,215.2050,M,14.755,M,1.0,0031*74
[164129.00]
$GPGGA,174355.00,5540.4323384,N,03730.3259484,E,4,35,0.4,215.2030,M,14.755,M,1.0,0031*7D
[164130.00]
$GPGGA,174356.00,5540.4323373,N,03730.3259485,E,4,35,0.4,215.2091,M,14.755,M,1.0,0031*7C
[164131.00]
$GPGGA,174357.00,5540.4323381,N,03730.3259484,E,4,35,0.4,215.2113,M,14.755,M,1.0,0031*7A
[164132.00]
$GPGGA,174358.00,5540.4323368,N,03730.3259476,E,4,35,0.4,215.2095,M,14.755,M,1.0,0031*70
[164133.00]
$GPGGA,174359.00,5540.4323374,N,03730.3259495,E,4,35,0.4,215.2112,M,14.755,M,1.0,0031*7F
[164134.00]
$GPGGA,174400.00,5540.4323364,N,03730.3259499,E,4,35,0.4,215.2102,M,14.755,M,1.0,0031*78
[164135.00]
$GPGGA,174401.00,5540.4323375,N,03730.3259497,E,4,35,0.4,215.2068,M,14.755,M,1.0,0031*7A
[164136.00]
$GPGGA,174402.00,5540.4323367,N,03730.3259510,E,4,35,0.4,215.2085,M,14.755,M,1.0,0031*77
[164137.00]
$GPGGA,174403.00,5540.4323369,N,03730.3259498,E,4,35,0.4,215.2068,M,14.755,M,1.0,0031*7A
[164138.00]
$GPGGA,174404.00,5540.4323369,N,03730.3259503,E,4,35,0.4,215.2094,M,14.755,M,1.0,0031*7D
[164139.00]
$GPGGA,174405.00,5540.4323377,N,03730.3259508,E,4,35,0.4,215.2110,M,14.755,M,1.0,0031*75
[164140.00]
$GPGGA,174406.00,5540.4323379,N,03730.3259518,E,4,35,0.4,215.2075,M,14.755,M,1.0,0031*7B
[164141.00]
$GPGGA,174407.00,5540.4323374,N,03730.3259506,E,4,35,0.4,215.2091,M,14.755,M,1.0,0031*72
[164142.00]
$GPGGA,174408.00,5540.4323363,N,03730.3259516,E,4,35,0.4,215.2095,M,14.755,M,1.0,0031*7E
[164143.00]
$GPGGA,174409.00,5540.4323371,N,03730.3259531,E,4,35,0.4,215.2093,M,14.755,M,1.0,0031*7F
[164144.00]
$GPGGA,174410.00,5540.4323369,N,03730.3259537,E,4,35,0.4,215.2072,M,14.755,M,1.0,0031*77
[164145.00]
$GPGGA,174411.00,5540.4323355,N,03730.3259540,E,4,35,0.4,215.2067,M,14.755,M,1.0,0031*7D
[164146.00]
$GPGGA,174412.00,5540.4323365,N,03730.3259529,E,4,35,0.4,215.2091,M,14.755,M,1.0,0031*7B
[164147.00]
$GPGGA,174413.00,5540.4323366,N,03730.3259541,E,4,35,0.4,215.2112,M,14.755,M,1.0,0031*7D
[164148.00]
$GPGGA,174414.00,5540.4323368,N,03730.3259535,E,4,35,0.4,215.2083,M,14.755,M,1.0,0031*7E
[164149.00]
$GPGGA,174415.00,5540.4323372,N,03730.3259551,E,4,35,0.4,215.2108,M,14.755,M,1.0,0031*74
[164150.00]
$GPGGA,174416.00,5540.4323367,N,03730.3259534,E,4,35,0.4,215.2142,M,14.755,M,1.0,0031*7E
[164151.00]
$GPGGA,174417.00,5540.4323373,N,03730.3259529,E,4,35,0.4,215.2085,M,14.755,M,1.0,0031*7C
[164152.00]
$GPGGA,174418.00,5540.4323375,N,03730.3259529,E,4,35,0.4,215.2071,M,14.755,M,1.0,0031*7E
[164153.00]
$GPGGA,174419.00,5540.4323369,N,03730.3259531,E,4,35,0.4,215.2101,M,14.755,M,1.0,0031*7D
[164154.00]
$GPGGA,174420.00,5540.4323355,N,03730.3259528,E,4,35,0.4,215.2092,M,14.755,M,1.0,0031*7B
[164155.00]
$GPGGA,174421.00,5540.4323357,N,03730.3259521,E,4,35,0.4,215.2115,M,14.755,M,1.0,0031*7F
[164156.00]
$GPGGA,174422.00,5540.4323350,N,03730.3259527,E,4,35,0.4,215.2090,M,14.755,M,1.0,0031*71
[164157.00]
$GPGGA,174423.00,5540.4323354,N,03730.3259526,E,4,35,0.4,215.2086,M,14.755,M,1.0,0031*72
[164158.00]
$GPGGA,174424.00,5540.4323342,N,03730.3259530,E,4,35,0.4,215.2112,M,14.755,M,1.0,0031*79
[164159.00]
$GPGGA,174425.00,5540.4323348,N,03730.3259517,E,4,35,0.4,215.2056,M,14.755,M,1.0,0031*76
[164200.00]
$GPGGA,174426.00,5540.4323356,N,03730.3259521,E,4,35,0.4,215.2096,M,14.755,M,1.0,0031*73
[164201.00]
$GPGGA,174427.00,5540.4323351,N,03730.3259514,E,4,35,0.4,215.2017,M,14.755,M,1.0,0031*7A
[164202.00]
$GPGGA,174428.00,5540.4323351,N,03730.3259531,E,4,35,0.4,215.2039,M,14.755,M,1.0,0031*7E
[164203.00]
$GPGGA,174429.00,5540.4323359,N,03730.3259524,E,4,35,0.4,215.2030,M,14.755,M,1.0,0031*7A
[164204.00]
$GPGGA,174430.00,5540.4323358,N,03730.3259527,E,4,35,0.4,215.2028,M,14.755,M,1.0,0031*79
[164205.00]
$GPGGA,174431.00,5540.4323355,N,03730.3259532,E,4,35,0.4,215.2064,M,14.755,M,1.0,0031*79
[164206.00]
$GPGGA,174432.00,5540.4323355,N,03730.3259533,E,4,35,0.4,215.2003,M,14.755,M,1.0,0031*7A
[164207.00]
$GPGGA,174433.00,5540.4323356,N,03730.3259524,E,4,35,0.4,215.2057,M,14.755,M,1.0,0031*7F
[164208.00]
$GPGGA,174434.00,5540.4323359,N,03730.3259524,E,4,35,0.4,215.2055,M,14.755,M,1.0,0031*75
[164209.00]
$GPGGA,174435.00,5540.4323359,N,03730.3259523,E,4,35,0.4,215.2053,M,14.755,M,1.0,0031*75
[164210.00]
$GPGGA,174436.00,5540.4323368,N,03730.3259526,E,4,35,0.4,215.2032,M,14.755,M,1.0,0031*76
[164211.00]
$GPGGA,174437.00,5540.4323350,N,03730.3259521,E,4,35,0.4,215.2083,M,14.755,M,1.0,0031*71
[164212.00]
$GPGGA,174438.00,5540.4323364,N,03730.3259525,E,4,35,0.4,215.2065,M,14.755,M,1.0,0031*75
[164213.00]
$GPGGA,174439.00,5540.4323356,N,03730.3259519,E,4,35,0.4,215.2065,M,14.755,M,1.0,0031*7A
[164214.00]
$GPGGA,174440.00,5540.4323346,N,03730.3259514,E,4,35,0.4,215.2067,M,14.755,M,1.0,0031*7A
[164215.00]
$GPGGA,174441.00,5540.4323346,N,03730.3259532,E,4,35,0.4,215.2067,M,14.755,M,1.0,0031*7F
[164216.00]
$GPGGA,174442.00,5540.4323347,N,03730.3259520,E,4,35,0.4,215.2008,M,14.755,M,1.0,0031*77
[164217.00]
$GPGGA,174443.00,5540.4323342,N,03730.3259541,E,4,35,0.4,215.2047,M,14.755,M,1.0,0031*7F
[164218.00]
$GPGGA,174444.00,5540.4323354,N,03730.3259528,E,4,35,0.4,215.2053,M,14.755,M,1.0,0031*75
[164219.00]
$GPGGA,174445.00,5540.4323350,N,03730.3259537,E,4,35,0.4,215.2056,M,14.755,M,1.0,0031*7B
[164220.00]
$GPGGA,174446.00,5540.4323344,N,03730.3259534,E,4,35,0.4,215.2075,M,14.755,M,1.0,0031*7F
[164221.00]
$GPGGA,174447.00,5540.4323355,N,03730.3259526,E,4,35,0.4,215.2069,M,14.755,M,1.0,0031*70
[164222.00]
$GPGGA,174448.00,5540.4323353,N,03730.3259525,E,4,35,0.4,215.2059,M,14.755,M,1.0,0031*79
[164223.00]
$GPGGA,174449.00,5540.4323342,N,03730.3259531,E,4,35,0.4,215.2026,M,14.755,M,1.0,0031*75
[164224.00]
$GPGGA,174450.00,5540.4323352,N,03730.3259519,E,4,35,0.4,215.2068,M,14.755,M,1.0,0031*7C
[164225.00]
$GPGGA,174451.00,5540.4323368,N,03730.3259542,E,4,35,0.4,215.2058,M,14.755,M,1.0,0031*79
[164226.00]
$GPGGA,174452.00,5540.4323351,N,03730.3259542,E,4,35,0.4,215.2093,M,14.755,M,1.0,0031*77
[164227.00]
$GPGGA,174453.00,5540.4323360,N,03730.3259529,E,4,35,0.4,215.2035,M,14.755,M,1.0,0031*75
[164228.00]
$GPGGA,174454.00,5540.4323366,N,03730.3259531,E,4,35,0.4,215.2081,M,14.755,M,1.0,0031*72
[164229.00]
$GPGGA,174455.00,5540.4323368,N,03730.3259529,E,4,35,0.4,215.2103,M,14.755,M,1.0,0031*7F
[164230.00]
$GPGGA,174456.00,5540.4323371,N,03730.3259536,E,4,35,0.4,215.2114,M,14.755,M,1.0,0031*7C
[164231.00]
$GPGGA,174457.00,5540.4323372,N,03730.3259548,E,4,35,0.4,215.2037,M,14.755,M,1.0,0031*77
[164232.00]
$GPGGA,174458.00,5540.4323379,N,03730.3259534,E,4,35,0.4,215.2077,M,14.755,M,1.0,0031*7C
[164233.00]
$GPGGA,174459.00,5540.4323365,N,03730.3259536,E,4,35,0.4,215.2120,M,14.755,M,1.0,0031*71
[164234.00]
$GPGGA,174500.00,5540.4323364,N,03730.3259542,E,4,35,0.4,215.2129,M,14.755,M,1.0,0031*77
[164235.00]
$GPGGA,174501.00,5540.4323362,N,03730.3259533,E,4,35,0.4,215.2139,M,14.755,M,1.0,0031*77
[164236.00]
$GPGGA,174502.00,5540.4323376,N,03730.3259525,E,4,35,0.4,215.2098,M,14.755,M,1.0,0031*7C
[164237.00]
$GPGGA,174503.00,5540.4323368,N,03730.3259538,E,4,35,0.4,215.2150,M,14.755,M,1.0,0031*7B
[164238.00]
$GPGGA,174504.00,5540.4323371,N,03730.3259530,E,4,35,0.4,215.2101,M,14.755,M,1.0,0031*78
[164239.00]
$GPGGA,174505.00,5540.4323364,N,03730.3259548,E,4,35,0.4,215.2137,M,14.755,M,1.0,0031*77
[164240.00]
$GPGGA,174506.00,5540.4323386,N,03730.3259526,E,4,35,0.4,215.2149,M,14.755,M,1.0,0031*79
[164241.00]
$GPGGA,174507.00,5540.4323381,N,03730.3259522,E,4,35,0.4,215.2157,M,14.755,M,1.0,0031*74
[164242.00]
$GPGGA,174508.00,5540.4323385,N,03730.3259534,E,4,35,0.4,215.2153,M,14.755,M,1.0,0031*7C
[164243.00]
$GPGGA,174509.00,5540.4323392,N,03730.3259527,E,4,35,0.4,215.2147,M,14.755,M,1.0,0031*7C
[164244.00]
$GPGGA,174510.00,5540.4323384,N,03730.3259528,E,4,35,0.4,215.2153,M,14.755,M,1.0,0031*79
[164245.00]
$GPGGA,174511.00,5540.4323396,N,03730.3259538,E,4,35,0.4,215.2173,M,14.755,M,1.0,0031*78
[164246.00]
$GPGGA,174512.00,5540.4323395,N,03730.3259543,E,4,35,0.4,215.2175,M,14.755,M,1.0,0031*72
[164247.00]
$GPGGA,174513.00,5540.4323397,N,03730.3259521,E,4,35,0.4,215.2150,M,14.755,M,1.0,0031*72
[164248.00]
$GPGGA,174514.00,5540.4323392,N,03730.3259533,E,4,35,0.4,215.2176,M,14.755,M,1.0,0031*77
[164249.00]
$GPGGA,174515.00,5540.4323394,N,03730.3259524,E,4,35,0.4,215.2188,M,14.755,M,1.0,0031*77
[164250.00]
$GPGGA,174516.00,5540.4323393,N,03730.3259534,E,4,35,0.4,215.2221,M,14.755,M,1.0,0031*72
[164251.00]
$GPGGA,174517.00,5540.4323394,N,03730.3259540,E,4,35,0.4,215.2185,M,14.755,M,1.0,0031*7A
[164252.00]
$GPGGA,174518.00,5540.4323394,N,03730.3259540,E,4,35,0.4,215.2186,M,14.755,M,1.0,0031*76
[164253.00]
$GPGGA,174519.00,5540.4323405,N,03730.3259529,E,4,35,0.4,215.2195,M,14.755,M,1.0,0031*75
[164254.00]
$GPGGA,174520.00,5540.4323399,N,03730.3259540,E,4,35,0.4,215.2186,M,14.755,M,1.0,0031*70
[164255.00]
$GPGGA,174521.00,5540.4323400,N,03730.3259552,E,4,35,0.4,215.2171,M,14.755,M,1.0,0031*7D
[164256.00]
$GPGGA,174522.00,5540.4323388,N,03730.3259549,E,4,35,0.4,215.2126,M,14.755,M,1.0,0031*71
[164257.00]
$GPGGA,174523.00,5540.4323394,N,03730.3259535,E,4,35,0.4,215.2200,M,14.755,M,1.0,0031*71
[164258.00]
$GPGGA,174524.00,5540.4323386,N,03730.3259538,E,4,35,0.4,215.2150,M,14.755,M,1.0,0031*7E
[164259.00]
$GPGGA,174525.00,5540.4323389,N,03730.3259541,E,4,35,0.4,215.2214,M,14.755,M,1.0,0031*7D
[164300.00]
$GPGGA,174526.00,5540.4323399,N,03730.3259535,E,4,35,0.4,215.2174,M,14.755,M,1.0,0031*79
[164301.00]
$GPGGA,174527.00,5540.4323400,N,03730.3259541,E,4,35,0.4,215.2227,M,14.755,M,1.0,0031*79
[164302.00]
$GPGGA,174528.00,5540.4323407,N,03730.3259529,E,4,35,0.4,215.2193,M,14.755,M,1.0,0031*73
[164303.00]
$GPGGA,174529.00,5540.4323397,N,03730.3259541,E,4,35,0.4,215.2186,M,14.755,M,1.0,0031*76
[164304.00]
$GPGGA,174530.00,5540.4323401,N,03730.3259547,E,4,35,0.4,215.2166,M,14.755,M,1.0,0031*7E
[164305.00]
$GPGGA,174531.00,5540.4323393,N,03730.3259526,E,4,35,0.4,215.2215,M,14.755,M,1.0,0031*73
[164306.00]
$GPGGA,174532.00,5540.4323396,N,03730.3259530,E,4,35,0.4,215.2156,M,14.755,M,1.0,0031*76
[164307.00]
$GPGGA,174533.00,5540.4323396,N,03730.3259553,E,4,35,0.4,215.2170,M,14.755,M,1.0,0031*76
[164308.00]
$GPGGA,174534.00,5540.4323399,N,03730.3259541,E,4,35,0.4,215.2189,M,14.755,M,1.0,0031*7B
[164309.00]
$GPGGA,174535.00,5540.4323404,N,03730.3259546,E,4,35,0.4,215.2164,M,14.755,M,1.0,0031*7D
[164310.00]
$GPGGA,174536.00,5540.4323395,N,03730.3259543,E,4,35,0.4,215.2166,M,14.755,M,1.0,0031*76
[164311.00]
$GPGGA,174537.00,5540.4323390,N,03730.3259535,E,4,35,0.4,215.2206,M,14.755,M,1.0,0031*76
[164312.00]
$GPGGA,174538.00,5540.4323391,N,03730.3259536,E,4,35,0.4,215.2210,M,14.755,M,1.0,0031*7C
[164313.00]
$GPGGA,174539.00,5540.4323402,N,03730.3259541,E,4,35,0.4,215.2175,M,14.755,M,1.0,0031*70
[164314.00]
$GPGGA,174540.00,5540.4323393,N,03730.3259544,E,4,35,0.4,215.2232,M,14.755,M,1.0,0031*74
[164315.00]
$GPGGA,174541.00,5540.4323399,N,03730.3259549,E,4,35,0.4,215.2248,M,14.755,M,1.0,0031*7F
[164316.00]
$GPGGA,174542.00,5540.4323411,N,03730.3259552,E,4,35,0.4,215.2193,M,14.755,M,1.0,0031*74
[164317.00]
$GPGGA,174543.00,5540.4323399,N,03730.3259541,E,4,35,0.4,215.2260,M,14.755,M,1.0,0031*7F
[164318.00]
$GPGGA,174544.00,5540.4323401,N,03730.3259548,E,4,35,0.4,215.2149,M,14.755,M,1.0,0031*7F
[164319.00]
$GPGGA,174545.00,5540.4323406,N,03730.3259542,E,4,35,0.4,215.2211,M,14.755,M,1.0,0031*7D
[164320.00]
$GPGGA,174546.00,5540.4323388,N,03730.3259536,E,4,35,0.4,215.2201,M,14.755,M,1.0,0031*7D
[164321.00]
$GPGGA,174547.00,5540.4323398,N,03730.3259555,E,4,35,0.4,215.2196,M,14.755,M,1.0,0031*75
[164322.00]
$GPGGA,174548.00,5540.4323404,N,03730.3259551,E,4,35,0.4,215.2097,M,14.755,M,1.0,0031*7C
[164323.00]
$GPGGA,174549.00,5540.4323405,N,03730.3259555,E,4,35,0.4,215.2135,M,14.755,M,1.0,0031*71
[164324.00]
$GPGGA,174550.00,5540.4323397,N,03730.3259548,E,4,35,0.4,215.2113,M,14.755,M,1.0,0031*7D
[164325.00]
$GPGGA,174551.00,5540.4323406,N,03730.3259570,E,4,35,0.4,215.2099,M,14.755,M,1.0,0031*7B
[164326.00]
$GPGGA,174552.00,5540.4323393,N,03730.3259557,E,4,35,0.4,215.2099,M,14.755,M,1.0,0031*76
[164327.00]
[164327.00] ---PWR OFF---
[164327.00] ---PWR OFF---
[164327.00] ---PWR OFF---
[164328.00]
[164329.00]
[164330.00]
[164331.00]
[164332.00]
[164333.00]
[164334.00]
[164335.00]
[164336.00]
[164337.00]
[164338.00]
[164339.00]
[164340.00]
[164341.00]
[164342.00]
[164343.00] ---PWR ON---
[164343.00]
[164344.00]
[164345.00]
$GPGGA,000124.00,0000.0000000,N,00000.0000000,E,0,00,0.0,-6378154.1620,M,17.162,M,,*7B
[164346.00]
$GPGGA,000125.00,0000.0000000,N,00000.0000000,E,0,00,0.0,-6378154.1620,M,17.162,M,,*7A
[164347.00]
$GPGGA,000126.00,0000.0000000,N,00000.0000000,E,0,00,0.0,-6378154.1620,M,17.162,M,,*79
[164348.00]
$GPGGA,000127.00,0000.0000000,N,00000.0000000,E,0,00,0.0,-6378154.1620,M,17.162,M,,*78
[164349.00]
$GPGGA,000128.00,0000.0000000,N,00000.0000000,E,0,00,0.0,-6378154.1620,M,17.162,M,,*77
[164350.00]
$GPGGA,000129.00,0000.0000000,N,00000.0000000,E,0,00,0.0,-6378154.1620,M,17.162,M,,*76
[164351.00]
$GPGGA,000130.00,0000.0000000,N,00000.0000000,E,0,00,0.0,-6378154.1620,M,17.162,M,,*7E
[164352.00]
$GPGGA,174622.00,5540.4334039,N,03730.3264959,E,1,06,1.7,213.3588,M,14.755,M,,0031*51
[164353.00]
$GPGGA,174623.00,5540.4333723,N,03730.3265182,E,1,06,1.7,213.4377,M,14.755,M,,0031*55
[164354.00]
$GPGGA,174624.00,5540.4334168,N,03730.3264864,E,1,07,1.7,213.3268,M,14.755,M,,0031*55
[164355.00]
$GPGGA,174625.00,5540.4342261,N,03730.3275754,E,1,07,1.7,216.7268,M,14.755,M,,0031*52
[164356.00]
$GPGGA,174626.00,5540.4342173,N,03730.3275758,E,1,07,1.7,216.5384,M,14.755,M,,0031*5C
[164357.00]
$GPGGA,174627.00,5540.4324993,N,03730.3268811,E,1,08,1.3,210.1760,M,14.755,M,,0031*52
[164358.00]
$GPGGA,174628.00,5540.4324644,N,03730.3269321,E,1,08,1.3,210.3562,M,14.755,M,,0031*53
[164359.00]
$GPGGA,174629.00,5540.4323967,N,03730.3270139,E,1,08,1.3,210.2087,M,14.755,M,,0031*57
[164400.00]
$GPGGA,174630.00,5540.4324571,N,03730.3269520,E,1,08,1.3,210.3128,M,14.755,M,,0031*52
[164401.00]
$GPGGA,174631.00,5540.4324633,N,03730.3269311,E,1,08,1.3,210.2836,M,14.755,M,,0031*55
[164402.00]
$GPGGA,174632.00,5540.4324586,N,03730.3269220,E,1,08,1.3,210.2093,M,14.755,M,,0031*5F
[164403.00]
$GPGGA,174633.00,5540.4324644,N,03730.3269251,E,1,08,1.3,210.3983,M,14.755,M,,0031*5C
[164404.00]
$GPGGA,174634.00,5540.4325186,N,03730.3268474,E,1,08,1.3,210.3696,M,14.755,M,,0031*58
[164405.00]
$GPGGA,174635.00,5540.4325034,N,03730.3268787,E,1,08,1.3,210.3368,M,14.755,M,,0031*5A
[164406.00]
$GPGGA,174636.00,5540.4324809,N,03730.3269135,E,1,08,1.3,210.4124,M,14.755,M,,0031*5D
[164407.00]
$GPGGA,174637.00,5540.4325191,N,03730.3268689,E,1,08,1.3,210.4104,M,14.755,M,,0031*56
[164408.00]
$GPGGA,174638.00,5540.4324690,N,03730.3269641,E,1,08,1.3,210.5613,M,14.755,M,,0031*5B
[164409.00]
$GPGGA,174639.00,5540.4324177,N,03730.3270083,E,1,08,1.3,210.3426,M,14.755,M,,0031*56
[164410.00]
$GPGGA,174640.00,5540.4323954,N,03730.3269716,E,1,08,1.3,210.3230,M,14.755,M,,0031*54
[164411.00]
$GPGGA,174641.00,5540.4323488,N,03730.3269535,E,1,08,1.3,210.0965,M,14.755,M,,0031*52
[164412.00]
$GPGGA,174642.00,5540.4323623,N,03730.3269255,E,1,08,1.3,210.0466,M,14.755,M,,0031*5D
[164413.00]
$GPGGA,174643.00,5540.4323846,N,03730.3270538,E,1,08,1.3,210.1584,M,14.755,M,,0031*59
[164414.00]
$GPGGA,174640.00,5540.4327137,N,03730.3268658,E,1,29,0.5,212.4204,M,14.755,M,,0031*51
[164415.00]
$GPGGA,174641.00,5540.4321639,N,03730.3257955,E,5,27,0.4,215.5856,M,14.755,M,1.0,0031*7E
[164416.00]
$GPGGA,174642.00,5540.4321621,N,03730.3257937,E,5,34,0.4,215.5783,M,14.755,M,1.0,0031*75
[164417.00]
$GPGGA,174643.00,5540.4321636,N,03730.3257954,E,5,34,0.4,215.5635,M,14.755,M,1.0,0031*7B
[164418.00]
$GPGGA,174644.00,5540.4321707,N,03730.3258036,E,5,34,0.4,215.5504,M,14.755,M,1.0,0031*7C
[164419.00]
$GPGGA,174645.00,5540.4321785,N,03730.3258119,E,5,34,0.4,215.5350,M,14.755,M,1.0,0031*7C
[164420.00]
$GPGGA,174646.00,5540.4321907,N,03730.3258225,E,5,34,0.4,215.5149,M,14.755,M,1.0,0031*7D
[164421.00]
$GPGGA,174647.00,5540.4322030,N,03730.3258328,E,5,34,0.4,215.4917,M,14.755,M,1.0,0031*7C
[164422.00]
$GPGGA,174648.00,5540.4322148,N,03730.3258423,E,5,34,0.4,215.4733,M,14.755,M,1.0,0031*79
[164423.00]
$GPGGA,174649.00,5540.4322241,N,03730.3258502,E,5,34,0.4,215.4554,M,14.755,M,1.0,0031*73
[164424.00]
$GPGGA,174650.00,5540.4322336,N,03730.3258570,E,5,34,0.4,215.4438,M,14.755,M,1.0,0031*74
[164425.00]
$GPGGA,174651.00,5540.4322425,N,03730.3258647,E,5,34,0.4,215.4306,M,14.755,M,1.0,0031*7D
[164426.00]
$GPGGA,174652.00,5540.4323396,N,03730.3259491,E,4,34,0.4,215.2034,M,14.755,M,1.0,0031*7D
[164427.00]
$GPGGA,174653.00,5540.4323425,N,03730.3259487,E,4,34,0.4,215.2060,M,14.755,M,1.0,0031*75
[164428.00]
$GPGGA,174654.00,5540.4323429,N,03730.3259445,E,4,34,0.4,215.2047,M,14.755,M,1.0,0031*75
[164429.00]
$GPGGA,174655.00,5540.4323448,N,03730.3259440,E,4,34,0.4,215.2030,M,14.755,M,1.0,0031*76
[164430.00]
$GPGGA,174656.00,5540.4323474,N,03730.3259440,E,4,34,0.4,215.2030,M,14.755,M,1.0,0031*7A
[164431.00]
$GPGGA,174657.00,5540.4323450,N,03730.3259454,E,4,34,0.4,215.2021,M,14.755,M,1.0,0031*78
[164432.00]
$GPGGA,174658.00,5540.4323469,N,03730.3259463,E,4,34,0.4,215.2024,M,14.755,M,1.0,0031*7C
[164433.00]
$GPGGA,174659.00,5540.4323444,N,03730.3259467,E,4,34,0.4,215.2042,M,14.755,M,1.0,0031*76
[164434.00]
$GPGGA,174700.00,5540.4323471,N,03730.3259446,E,4,34,0.4,215.2068,M,14.755,M,1.0,0031*76
[164435.00]
$GPGGA,174701.00,5540.4323444,N,03730.3259432,E,4,34,0.4,215.2023,M,14.755,M,1.0,0031*7D
[164436.00]
$GPGGA,174702.00,5540.4323411,N,03730.3259453,E,4,34,0.4,215.1926,M,14.755,M,1.0,0031*76
[164437.00]
$GPGGA,174703.00,5540.4323425,N,03730.3259443,E,4,34,0.4,215.1932,M,14.755,M,1.0,0031*74
[164438.00]
$GPGGA,174704.00,5540.4323487,N,03730.3259425,E,4,35,0.4,215.2006,M,14.755,M,1.0,0031*77
[164439.00]
$GPGGA,174705.00,5540.4323434,N,03730.3259433,E,4,35,0.4,215.1942,M,14.755,M,1.0,0031*73
[164440.00]
$GPGGA,174706.00,5540.4323383,N,03730.3259501,E,4,35,0.4,215.1940,M,14.755,M,1.0,0031*79
[164441.00]
$GPGGA,174707.00,5540.4323379,N,03730.3259508,E,4,35,0.4,215.2055,M,14.755,M,1.0,0031*7A
[164442.00]
$GPGGA,174708.00,5540.4323385,N,03730.3259500,E,4,35,0.4,215.1968,M,14.755,M,1.0,0031*7A
[164443.00]
$GPGGA,174709.00,5540.4323398,N,03730.3259488,E,4,35,0.4,215.2063,M,14.755,M,1.0,0031*77
[164444.00]
$GPGGA,174710.00,5540.4323417,N,03730.3259517,E,4,35,0.4,215.2009,M,14.755,M,1.0,0031*74
[164445.00]
$GPGGA,174711.00,5540.4323427,N,03730.3259506,E,4,35,0.4,215.2112,M,14.755,M,1.0,0031*7D
[164446.00]
$GPGGA,174712.00,5540.4323391,N,03730.3259496,E,4,35,0.4,215.1988,M,14.755,M,1.0,0031*74
[164447.00]
$GPGGA,174713.00,5540.4323421,N,03730.3259502,E,4,35,0.4,215.2130,M,14.755,M,1.0,0031*7D
[164448.00]
$GPGGA,174714.00,5540.4323436,N,03730.3259490,E,4,35,0.4,215.2100,M,14.755,M,1.0,0031*75
[164449.00]
$GPGGA,174715.00,5540.4323377,N,03730.3259504,E,4,35,0.4,215.2008,M,14.755,M,1.0,0031*73
[164450.00]
$GPGGA,174716.00,5540.4323409,N,03730.3259481,E,4,35,0.4,215.2097,M,14.755,M,1.0,0031*74
[164451.00]
$GPGGA,174717.00,5540.4323425,N,03730.3259496,E,4,35,0.4,215.2135,M,14.755,M,1.0,0031*74
[164452.00]
$GPGGA,174718.00,5540.4323409,N,03730.3259511,E,4,35,0.4,215.2139,M,14.755,M,1.0,0031*77
[164453.00]
$GPGGA,174719.00,5540.4323422,N,03730.3259517,E,4,35,0.4,215.2150,M,14.755,M,1.0,0031*76
[164454.00]
$GPGGA,174720.00,5540.4323421,N,03730.3259506,E,4,35,0.4,215.2150,M,14.755,M,1.0,0031*7F
[164455.00]
$GPGGA,174721.00,5540.4323422,N,03730.3259507,E,4,35,0.4,215.2151,M,14.755,M,1.0,0031*7D
[164456.00]
$GPGGA,174722.00,5540.4323421,N,03730.3259523,E,4,35,0.4,215.2177,M,14.755,M,1.0,0031*7F
[164457.00]
$GPGGA,174723.00,5540.4323387,N,03730.3259527,E,4,35,0.4,215.2049,M,14.755,M,1.0,0031*7D
[164458.00]
$GPGGA,174724.00,5540.4323425,N,03730.3259515,E,4,35,0.4,215.2166,M,14.755,M,1.0,0031*78
[164459.00]
$GPGGA,174725.00,5540.4323409,N,03730.3259524,E,4,35,0.4,215.2216,M,14.755,M,1.0,0031*71
[164500.00]
$GPGGA,174726.00,5540.4323409,N,03730.3259509,E,4,35,0.4,215.2228,M,14.755,M,1.0,0031*70
[164501.00]
$GPGGA,174727.00,5540.4323420,N,03730.3259521,E,4,35,0.4,215.2250,M,14.755,M,1.0,0031*7F
[164502.00]
$GPGGA,174728.00,5540.4323413,N,03730.3259522,E,4,35,0.4,215.2228,M,14.755,M,1.0,0031*7C
[164503.00]
$GPGGA,174729.00,5540.4323412,N,03730.3259518,E,4,35,0.4,215.2251,M,14.755,M,1.0,0031*7B
[164504.00]
$GPGGA,174730.00,5540.4323402,N,03730.3259534,E,4,35,0.4,215.2262,M,14.755,M,1.0,0031*7C
[164505.00]
$GPGGA,174731.00,5540.4323404,N,03730.3259519,E,4,35,0.4,215.2239,M,14.755,M,1.0,0031*7A
[164506.00]
$GPGGA,174732.00,5540.4323412,N,03730.3259558,E,4,35,0.4,215.2229,M,14.755,M,1.0,0031*7A
[164507.00]
$GPGGA,174733.00,5540.4323420,N,03730.3259549,E,4,35,0.4,215.2266,M,14.755,M,1.0,0031*71
[164508.00]
$GPGGA,174734.00,5540.4323399,N,03730.3259555,E,4,35,0.4,215.2235,M,14.755,M,1.0,0031*78
[164509.00]
$GPGGA,174735.00,5540.4323408,N,03730.3259545,E,4,35,0.4,215.2200,M,14.755,M,1.0,0031*71
[164510.00]
$GPGGA,174736.00,5540.4323411,N,03730.3259555,E,4,35,0.4,215.2218,M,14.755,M,1.0,0031*72
[164511.00]
$GPGGA,174737.00,5540.4323390,N,03730.3259557,E,4,35,0.4,215.2254,M,14.755,M,1.0,0031*77
[164512.00]
$GPGGA,174738.00,5540.4323409,N,03730.3259553,E,4,35,0.4,215.2225,M,14.755,M,1.0,0031*7D
[164513.00]
$GPGGA,174739.00,5540.4323399,N,03730.3259564,E,4,35,0.4,215.2198,M,14.755,M,1.0,0031*73
[164514.00]
$GPGGA,174740.00,5540.4323406,N,03730.3259566,E,4,35,0.4,215.2250,M,14.755,M,1.0,0031*79
[164515.00]
$GPGGA,174741.00,5540.4323410,N,03730.3259564,E,4,35,0.4,215.2201,M,14.755,M,1.0,0031*79
[164516.00]
$GPGGA,174742.00,5540.4323408,N,03730.3259565,E,4,35,0.4,215.2227,M,14.755,M,1.0,0031*76
[164517.00]
$GPGGA,174743.00,5540.4323395,N,03730.3259569,E,4,35,0.4,215.2266,M,14.755,M,1.0,0031*7D
[164518.00]
$GPGGA,174744.00,5540.4323398,N,03730.3259572,E,4,35,0.4,215.2212,M,14.755,M,1.0,0031*7E
[164519.00]
$GPGGA,174745.00,5540.4323390,N,03730.3259577,E,4,35,0.4,215.2184,M,14.755,M,1.0,0031*7E
[164520.00]
$GPGGA,174746.00,5540.4323382,N,03730.3259587,E,4,35,0.4,215.2221,M,14.755,M,1.0,0031*7D
[164521.00]
$GPGGA,174747.00,5540.4323386,N,03730.3259578,E,4,35,0.4,215.2228,M,14.755,M,1.0,0031*71
[164522.00]
$GPGGA,174748.00,5540.4323376,N,03730.3259591,E,4,35,0.4,215.2243,M,14.755,M,1.0,0031*7B
[164523.00]
$GPGGA,174749.00,5540.4323378,N,03730.3259582,E,4,35,0.4,215.2203,M,14.755,M,1.0,0031*72
[164524.00]
$GPGGA,174750.00,5540.4323377,N,03730.3259594,E,4,35,0.4,215.2203,M,14.755,M,1.0,0031*72
[164525.00]
$GPGGA,174751.00,5540.4323368,N,03730.3259584,E,4,35,0.4,215.2171,M,14.755,M,1.0,0031*7A
[164526.00]
$GPGGA,174752.00,5540.4323364,N,03730.3259605,E,4,35,0.4,215.2171,M,14.755,M,1.0,0031*7F
[164527.00]
$GPGGA,174753.00,5540.4323349,N,03730.3259587,E,4,35,0.4,215.2139,M,14.755,M,1.0,0031*74
[164528.00]
$GPGGA,174754.00,5540.4323342,N,03730.3259610,E,4,35,0.4,215.2056,M,14.755,M,1.0,0031*7D
[164529.00]
$GPGGA,174755.00,5540.4323363,N,03730.3259588,E,4,35,0.4,215.2179,M,14.755,M,1.0,0031*71
[164530.00]
$GPGGA,174756.00,5540.4323333,N,03730.3259584,E,4,35,0.4,215.2062,M,14.755,M,1.0,0031*70
[164531.00]
$GPGGA,174757.00,5540.4323344,N,03730.3259600,E,4,35,0.4,215.2070,M,14.755,M,1.0,0031*7D
[164532.00]
$GPGGA,174758.00,5540.4323346,N,03730.3259574,E,4,35,0.4,215.2161,M,14.755,M,1.0,0031*71
[164533.00]
$GPGGA,174759.00,5540.4323330,N,03730.3259598,E,4,35,0.4,215.2155,M,14.755,M,1.0,0031*74
[164534.00]
$GPGGA,174800.00,5540.4323353,N,03730.3259585,E,4,35,0.4,215.2181,M,14.755,M,1.0,0031*77
[164535.00]
$GPGGA,174801.00,5540.4323358,N,03730.3259564,E,4,35,0.4,215.2243,M,14.755,M,1.0,0031*7F
[164536.00]
$GPGGA,174802.00,5540.4323345,N,03730.3259573,E,4,35,0.4,215.2192,M,14.755,M,1.0,0031*79
[164537.00]
$GPGGA,174803.00,5540.4323348,N,03730.3259573,E,4,35,0.4,215.2191,M,14.755,M,1.0,0031*76
[164538.00]
$GPGGA,174804.00,5540.4323361,N,03730.3259581,E,4,35,0.4,215.2139,M,14.755,M,1.0,0031*75
[164539.00]
$GPGGA,174805.00,5540.4323346,N,03730.3259586,E,4,35,0.4,215.2167,M,14.755,M,1.0,0031*7D
[164540.00]
$GPGGA,174806.00,5540.4323353,N,03730.3259572,E,4,35,0.4,215.2195,M,14.755,M,1.0,0031*7C
[164541.00]
$GPGGA,174807.00,5540.4323350,N,03730.3259562,E,4,35,0.4,215.2234,M,14.755,M,1.0,0031*77
[164542.00]
$GPGGA,174808.00,5540.4323361,N,03730.3259551,E,4,35,0.4,215.2160,M,14.755,M,1.0,0031*78
[164543.00]
$GPGGA,174809.00,5540.4323364,N,03730.3259537,E,4,35,0.4,215.2204,M,14.755,M,1.0,0031*7D
[164544.00]
$GPGGA,174810.00,5540.4323367,N,03730.3259544,E,4,35,0.4,215.2205,M,14.755,M,1.0,0031*73
[164545.00]
$GPGGA,174811.00,5540.4323367,N,03730.3259555,E,4,35,0.4,215.2226,M,14.755,M,1.0,0031*73
[164546.00]
$GPGGA,174812.00,5540.4323377,N,03730.3259546,E,4,35,0.4,215.2160,M,14.755,M,1.0,0031*72
[164547.00]
$GPGGA,174813.00,5540.4323362,N,03730.3259551,E,4,35,0.4,215.2198,M,14.755,M,1.0,0031*76
[164548.00]
$GPGGA,174814.00,5540.4323370,N,03730.3259549,E,4,35,0.4,215.2151,M,14.755,M,1.0,0031*7E
[164549.00]
$GPGGA,174815.00,5540.4323371,N,03730.3259557,E,4,35,0.4,215.2194,M,14.755,M,1.0,0031*78
[164550.00]
$GPGGA,174816.00,5540.4323366,N,03730.3259559,E,4,35,0.4,215.2261,M,14.755,M,1.0,0031*7A
[164551.00]
$GPGGA,174817.00,5540.4323373,N,03730.3259563,E,4,35,0.4,215.2188,M,14.755,M,1.0,0031*72
[164552.00]
$GPGGA,174818.00,5540.4323352,N,03730.3259560,E,4,35,0.4,215.2203,M,14.755,M,1.0,0031*7D
[164553.00]
$GPGGA,174819.00,5540.4323354,N,03730.3259553,E,4,35,0.4,215.2217,M,14.755,M,1.0,0031*7F
[164554.00]
$GPGGA,174820.00,5540.4323360,N,03730.3259567,E,4,35,0.4,215.2218,M,14.755,M,1.0,0031*7A
[164555.00]
$GPGGA,174821.00,5540.4323359,N,03730.3259568,E,4,35,0.4,215.2262,M,14.755,M,1.0,0031*73
[164556.00]
$GPGGA,174822.00,5540.4323362,N,03730.3259554,E,4,35,0.4,215.2233,M,14.755,M,1.0,0031*73
[164557.00]
$GPGGA,174823.00,5540.4323348,N,03730.3259568,E,4,35,0.4,215.2266,M,14.755,M,1.0,0031*75
[164558.00]
$GPGGA,174824.00,5540.4323360,N,03730.3259561,E,4,35,0.4,215.2249,M,14.755,M,1.0,0031*7C
[164559.00]
$GPGGA,174825.00,5540.4323363,N,03730.3259565,E,4,35,0.4,215.2277,M,14.755,M,1.0,0031*77
[164600.00]
$GPGGA,174826.00,5540.4323364,N,03730.3259559,E,4,35,0.4,215.2257,M,14.755,M,1.0,0031*7E
[164601.00]
$GPGGA,174827.00,5540.4323349,N,03730.3259577,E,4,35,0.4,215.2268,M,14.755,M,1.0,0031*70
[164602.00]
$GPGGA,174828.00,5540.4323372,N,03730.3259563,E,4,35,0.4,215.2246,M,14.755,M,1.0,0031*7E
[164603.00]
$GPGGA,174829.00,5540.4323371,N,03730.3259577,E,4,35,0.4,215.2284,M,14.755,M,1.0,0031*77
[164604.00]
$GPGGA,174830.00,5540.4323363,N,03730.3259586,E,4,35,0.4,215.2233,M,14.755,M,1.0,0031*7E
[164605.00]
$GPGGA,174831.00,5540.4323352,N,03730.3259604,E,4,35,0.4,215.2240,M,14.755,M,1.0,0031*70
[164606.00]
$GPGGA,174832.00,5540.4323366,N,03730.3259592,E,4,35,0.4,215.2248,M,14.755,M,1.0,0031*70
[164607.00]
$GPGGA,174833.00,5540.4323340,N,03730.3259613,E,4,35,0.4,215.2249,M,14.755,M,1.0,0031*7E
[164608.00]
$GPGGA,174834.00,5540.4323348,N,03730.3259621,E,4,35,0.4,215.2266,M,14.755,M,1.0,0031*7D
[164609.00]
$GPGGA,174835.00,5540.4323360,N,03730.3259610,E,4,35,0.4,215.2236,M,14.755,M,1.0,0031*71
[164610.00]
$GPGGA,174836.00,5540.4323348,N,03730.3259627,E,4,35,0.4,215.2192,M,14.755,M,1.0,0031*71
[164611.00]
$GPGGA,174837.00,5540.4323349,N,03730.3259603,E,4,35,0.4,215.2269,M,14.755,M,1.0,0031*70
[164612.00]
$GPGGA,174838.00,5540.4323360,N,03730.3259587,E,4,35,0.4,215.2262,M,14.755,M,1.0,0031*70
[164613.00]
$GPGGA,174839.00,5540.4323358,N,03730.3259587,E,4,35,0.4,215.2258,M,14.755,M,1.0,0031*73
[164614.00]
$GPGGA,174840.00,5540.4323340,N,03730.3259581,E,4,35,0.4,215.2285,M,14.755,M,1.0,0031*72
[164615.00]
$GPGGA,174841.00,5540.4323345,N,03730.3259582,E,4,35,0.4,215.2208,M,14.755,M,1.0,0031*70
[164616.00]
$GPGGA,174842.00,5540.4323344,N,03730.3259574,E,4,35,0.4,215.2273,M,14.755,M,1.0,0031*77
[164617.00]
$GPGGA,174843.00,5540.4323333,N,03730.3259565,E,4,35,0.4,215.2284,M,14.755,M,1.0,0031*7E
[164618.00]
$GPGGA,174844.00,5540.4323320,N,03730.3259577,E,4,35,0.4,215.2264,M,14.755,M,1.0,0031*76
[164619.00]
$GPGGA,174845.00,5540.4323346,N,03730.3259568,E,4,35,0.4,215.2265,M,14.755,M,1.0,0031*78
[164620.00]
$GPGGA,174846.00,5540.4323334,N,03730.3259584,E,4,35,0.4,215.2290,M,14.755,M,1.0,0031*76
[164621.00]
$GPGGA,174847.00,5540.4323342,N,03730.3259571,E,4,35,0.4,215.2295,M,14.755,M,1.0,0031*79
[164622.00]
$GPGGA,174848.00,5540.4323334,N,03730.3259575,E,4,35,0.4,215.2286,M,14.755,M,1.0,0031*71
[164623.00]
$GPGGA,174849.00,5540.4323332,N,03730.3259572,E,4,35,0.4,215.2290,M,14.755,M,1.0,0031*76
[164624.00]
$GPGGA,174850.00,5540.4323337,N,03730.3259587,E,4,35,0.4,215.2333,M,14.755,M,1.0,0031*79
[164625.00]
$GPGGA,174851.00,5540.4323339,N,03730.3259572,E,4,35,0.4,215.2295,M,14.755,M,1.0,0031*71
[164626.00]
$GPGGA,174852.00,5540.4323337,N,03730.3259593,E,4,35,0.4,215.2270,M,14.755,M,1.0,0031*78
[164627.00]
$GPGGA,174853.00,5540.4323346,N,03730.3259593,E,4,35,0.4,215.2284,M,14.755,M,1.0,0031*74
[164628.00]
$GPGGA,174854.00,5540.4323343,N,03730.3259584,E,4,35,0.4,215.2257,M,14.755,M,1.0,0031*7E
[164629.00]
$GPGGA,174855.00,5540.4323338,N,03730.3259579,E,4,35,0.4,215.2272,M,14.755,M,1.0,0031*76
[164630.00]
$GPGGA,174856.00,5540.4323348,N,03730.3259583,E,4,35,0.4,215.2237,M,14.755,M,1.0,0031*76
[164631.00]
$GPGGA,174857.00,5540.4323344,N,03730.3259590,E,4,35,0.4,215.2263,M,14.755,M,1.0,0031*78
[164632.00]
$GPGGA,174858.00,5540.4323337,N,03730.3259581,E,4,35,0.4,215.2243,M,14.755,M,1.0,0031*71
[164633.00]
$GPGGA,174859.00,5540.4323332,N,03730.3259588,E,4,35,0.4,215.2211,M,14.755,M,1.0,0031*7B
[164634.00]
$GPGGA,174900.00,5540.4323338,N,03730.3259593,E,4,35,0.4,215.2252,M,14.755,M,1.0,0031*71
[164635.00]
$GPGGA,174901.00,5540.4323324,N,03730.3259584,E,4,35,0.4,215.2261,M,14.755,M,1.0,0031*7B
[164636.00]
$GPGGA,174902.00,5540.4323332,N,03730.3259575,E,4,35,0.4,215.2242,M,14.755,M,1.0,0031*70
[164637.00]
$GPGGA,174903.00,5540.4323324,N,03730.3259586,E,4,35,0.4,215.2227,M,14.755,M,1.0,0031*79
[164638.00]
$GPGGA,174904.00,5540.4323322,N,03730.3259581,E,4,35,0.4,215.2242,M,14.755,M,1.0,0031*7C
[164639.00]
$GPGGA,174905.00,5540.4323332,N,03730.3259580,E,4,35,0.4,215.2246,M,14.755,M,1.0,0031*79
[164640.00]
$GPGGA,174906.00,5540.4323337,N,03730.3259582,E,4,35,0.4,215.2244,M,14.755,M,1.0,0031*7F
[164641.00]
$GPGGA,174907.00,5540.4323333,N,03730.3259568,E,4,35,0.4,215.2275,M,14.755,M,1.0,0031*7C
[164642.00]
$GPGGA,174908.00,5540.4323361,N,03730.3259571,E,4,35,0.4,215.2334,M,14.755,M,1.0,0031*78
[164643.00]
$GPGGA,174909.00,5540.4323351,N,03730.3259573,E,4,35,0.4,215.2213,M,14.755,M,1.0,0031*7C
[164644.00]
[164644.00] ---PWR OFF---
[164644.00] ---PWR OFF---
[164644.00] ---PWR OFF---
[164645.00]
[164646.00]
[164647.00]
[164648.00]
[164649.00]
[164650.00]
[164651.00]
[164652.00]
[164653.00]
[164654.00]
[164655.00]
[164656.00]
[164657.00]
[164658.00]
[164659.00]
[164700.00] ---PWR ON---
[164700.00]
[164701.00]
[164702.00]
$GPGGA,000124.00,0000.0000000,N,00000.0000000,E,0,00,0.0,-6378154.1620,M,17.162,M,,*7B
[164703.00]
$GPGGA,000125.00,0000.0000000,N,00000.0000000,E,0,00,0.0,-6378154.1620,M,17.162,M,,*7A
[164704.00]
$GPGGA,000126.00,0000.0000000,N,00000.0000000,E,0,00,0.0,-6378154.1620,M,17.162,M,,*79
[164705.00]
$GPGGA,000127.00,0000.0000000,N,00000.0000000,E,0,00,0.0,-6378154.1620,M,17.162,M,,*78
[164706.00]
$GPGGA,174932.00,0000.0000000,N,00000.0000000,E,0,01,0.0,-6378154.1620,M,17.162,M,,*77
[164707.00]
$GPGGA,174933.00,0000.0000000,N,00000.0000000,E,0,01,0.0,-6378154.1620,M,17.162,M,,*76
[164708.00]
$GPGGA,174934.00,0000.0000000,N,00000.0000000,E,0,01,0.0,-6378154.1620,M,17.162,M,,*71
[164709.00]
$GPGGA,174939.00,5540.4326472,N,03730.3265358,E,1,08,1.3,212.0656,M,14.755,M,,0031*5E
[164710.00]
$GPGGA,174940.00,5540.4326800,N,03730.3265276,E,1,08,1.3,212.1730,M,14.755,M,,0031*54
[164711.00]
$GPGGA,174941.00,5540.4327009,N,03730.3265578,E,1,08,1.3,212.3254,M,14.755,M,,0031*59
[164712.00]
$GPGGA,174942.00,5540.4326978,N,03730.3267536,E,1,09,1.1,212.7762,M,14.755,M,,0031*5B
[164713.00]
$GPGGA,174943.00,5540.4326692,N,03730.3267325,E,1,09,1.1,212.6148,M,14.755,M,,0031*5A
[164714.00]
$GPGGA,174944.00,5540.4326843,N,03730.3267025,E,1,09,1.1,212.5580,M,14.755,M,,0031*5F
[164715.00]
$GPGGA,174945.00,5540.4327591,N,03730.3266120,E,1,10,1.1,212.4972,M,14.755,M,,0031*50
[164716.00]
$GPGGA,174946.00,5540.4327487,N,03730.3265736,E,1,10,1.1,212.3173,M,14.755,M,,0031*59
[164717.00]
$GPGGA,174947.00,5540.4328454,N,03730.3264357,E,1,10,1.1,212.1883,M,14.755,M,,0031*5F
[164718.00]
$GPGGA,174944.00,5540.4321402,N,03730.3263403,E,1,31,0.5,211.9025,M,14.755,M,,0031*5E
[164719.00]
$GPGGA,174945.00,5540.4321779,N,03730.3266485,E,1,31,0.5,212.1925,M,14.755,M,,0031*59
[164720.00]
$GPGGA,174946.00,5540.4324098,N,03730.3268658,E,1,31,0.5,211.5946,M,14.755,M,,0031*59
[164721.00]
$GPGGA,174947.00,5540.4322980,N,03730.3259194,E,5,28,0.5,215.2405,M,14.755,M,1.0,0031*71
[164722.00]
$GPGGA,174948.00,5540.4322985,N,03730.3259184,E,5,28,0.5,215.2431,M,14.755,M,1.0,0031*7D
[164723.00]
$GPGGA,174949.00,5540.4322986,N,03730.3259182,E,5,28,0.5,215.2430,M,14.755,M,1.0,0031*78
[164724.00]
$GPGGA,174950.00,5540.4322999,N,03730.3259187,E,5,28,0.5,215.2402,M,14.755,M,1.0,0031*7A
[164725.00]
$GPGGA,174951.00,5540.4323012,N,03730.3259180,E,5,28,0.5,215.2350,M,14.755,M,1.0,0031*77
[164726.00]
$GPGGA,174952.00,5540.4323017,N,03730.3259177,E,5,28,0.5,215.2345,M,14.755,M,1.0,0031*7D
[164727.00]
$GPGGA,174953.00,5540.4323010,N,03730.3259190,E,5,28,0.5,215.2346,M,14.755,M,1.0,0031*71
[164728.00]
$GPGGA,174954.00,5540.4323293,N,03730.3259626,E,4,28,0.5,215.2348,M,14.755,M,1.0,0031*7A
[164729.00]
$GPGGA,174955.00,5540.4323288,N,03730.3259616,E,4,28,0.5,215.2335,M,14.755,M,1.0,0031*78
[164730.00]
$GPGGA,174956.00,5540.4323302,N,03730.3259614,E,4,28,0.5,215.2324,M,14.755,M,1.0,0031*7A
[164731.00]
$GPGGA,174957.00,5540.4323296,N,03730.3259625,E,4,28,0.5,215.2407,M,14.755,M,1.0,0031*73
[164732.00]
$GPGGA,174958.00,5540.4323284,N,03730.3259619,E,4,28,0.5,215.2367,M,14.755,M,1.0,0031*71
[164733.00]
$GPGGA,174959.00,5540.4323305,N,03730.3259616,E,4,28,0.5,215.2424,M,14.755,M,1.0,0031*77
[164734.00]
$GPGGA,175000.00,5540.4323311,N,03730.3259615,E,4,28,0.5,215.2462,M,14.755,M,1.0,0031*77
[164735.00]
$GPGGA,175001.00,5540.4323312,N,03730.3259613,E,4,28,0.5,215.2449,M,14.755,M,1.0,0031*7A
[164736.00]
$GPGGA,175002.00,5540.4323298,N,03730.3259615,E,4,28,0.5,215.2459,M,14.755,M,1.0,0031*7D
[164737.00]
$GPGGA,175003.00,5540.4323305,N,03730.3259613,E,4,28,0.5,215.2458,M,14.755,M,1.0,0031*7E
[164738.00]
$GPGGA,175004.00,5540.4323303,N,03730.3259623,E,4,28,0.5,215.2456,M,14.755,M,1.0,0031*72
[164739.00]
$GPGGA,175005.00,5540.4323318,N,03730.3259612,E,4,28,0.5,215.2424,M,14.755,M,1.0,0031*7E
[164740.00]
$GPGGA,175006.00,5540.4323308,N,03730.3259628,E,4,28,0.5,215.2466,M,14.755,M,1.0,0031*73
[164741.00]
$GPGGA,175007.00,5540.4323316,N,03730.3259611,E,4,28,0.5,215.2453,M,14.755,M,1.0,0031*71
[164742.00]
$GPGGA,175008.00,5540.4323306,N,03730.3259613,E,4,28,0.5,215.2396,M,14.755,M,1.0,0031*73
[164743.00]
$GPGGA,175009.00,5540.4323318,N,03730.3259628,E,4,28,0.5,215.2477,M,14.755,M,1.0,0031*7D
[164744.00]
$GPGGA,175010.00,5540.4323292,N,03730.3259624,E,4,28,0.5,215.2433,M,14.755,M,1.0,0031*7A
[164745.00]
$GPGGA,175011.00,5540.4323306,N,03730.3259620,E,4,28,0.4,215.2405,M,14.755,M,1.0,0031*77
[164746.00]
$GPGGA,175012.00,5540.4323287,N,03730.3259632,E,4,35,0.4,215.2456,M,14.755,M,1.0,0031*75
[164747.00]
$GPGGA,175013.00,5540.4323302,N,03730.3259626,E,4,35,0.4,215.2387,M,14.755,M,1.0,0031*76
[164748.00]
$GPGGA,175014.00,5540.4323317,N,03730.3259630,E,4,35,0.4,215.2379,M,14.755,M,1.0,0031*73
[164749.00]
$GPGGA,175015.00,5540.4323296,N,03730.3259637,E,4,35,0.4,215.2423,M,14.755,M,1.0,0031*75
[164750.00]
$GPGGA,175016.00,5540.4323299,N,03730.3259612,E,4,35,0.4,215.2412,M,14.755,M,1.0,0031*7C
[164751.00]
$GPGGA,175017.00,5540.4323307,N,03730.3259613,E,4,35,0.4,215.2389,M,14.755,M,1.0,0031*7F
[164752.00]
$GPGGA,175018.00,5540.4323305,N,03730.3259625,E,4,35,0.4,215.2418,M,14.755,M,1.0,0031*78
[164753.00]
$GPGGA,175019.00,5540.4323294,N,03730.3259609,E,4,35,0.4,215.2433,M,14.755,M,1.0,0031*77
[164754.00]
$GPGGA,175020.00,5540.4323304,N,03730.3259609,E,4,35,0.4,215.2394,M,14.755,M,1.0,0031*7F
[164755.00]
$GPGGA,175021.00,5540.4323298,N,03730.3259615,E,4,35,0.4,215.2421,M,14.755,M,1.0,0031*7E
[164756.00]
$GPGGA,175022.00,5540.4323296,N,03730.3259620,E,4,35,0.4,215.2446,M,14.755,M,1.0,0031*74
[164757.00]
$GPGGA,175023.00,5540.4323313,N,03730.3259588,E,4,35,0.4,215.2471,M,14.755,M,1.0,0031*7C
[164758.00]
$GPGGA,175024.00,5540.4323307,N,03730.3259571,E,4,35,0.4,215.2462,M,14.755,M,1.0,0031*7A
[164759.00]
$GPGGA,175025.00,5540.4323289,N,03730.3259596,E,4,35,0.4,215.2489,M,14.755,M,1.0,0031*70
[164800.00]
$GPGGA,175026.00,5540.4323309,N,03730.3259593,E,4,35,0.4,215.2468,M,14.755,M,1.0,0031*70
[164801.00]
$GPGGA,175027.00,5540.4323297,N,03730.3259608,E,4,35,0.4,215.2437,M,14.755,M,1.0,0031*7C
[164802.00]
$GPGGA,175028.00,5540.4323304,N,03730.3259591,E,4,35,0.4,215.2459,M,14.755,M,1.0,0031*73
[164803.00]
$GPGGA,175029.00,5540.4323301,N,03730.3259588,E,4,35,0.4,215.2487,M,14.755,M,1.0,0031*7C
[164804.00]
$GPGGA,175030.00,5540.4323300,N,03730.3259598,E,4,35,0.4,215.2494,M,14.755,M,1.0,0031*76
[164805.00]
$GPGGA,175031.00,5540.4323302,N,03730.3259554,E,4,35,0.4,215.2500,M,14.755,M,1.0,0031*79
[164806.00]
$GPGGA,175032.00,5540.4323299,N,03730.3259551,E,4,35,0.4,215.2549,M,14.755,M,1.0,0031*71
[164807.00]
$GPGGA,175033.00,5540.4323304,N,03730.3259586,E,4,35,0.4,215.2512,M,14.755,M,1.0,0031*71
[164808.00]
$GPGGA,175034.00,5540.4323299,N,03730.3259576,E,4,35,0.4,215.2541,M,14.755,M,1.0,0031*7A
[164809.00]
$GPGGA,175035.00,5540.4323304,N,03730.3259587,E,4,35,0.4,215.2502,M,14.755,M,1.0,0031*77
[164810.00]
$GPGGA,175036.00,5540.4323306,N,03730.3259591,E,4,35,0.4,215.2532,M,14.755,M,1.0,0031*72
[164811.00]
$GPGGA,175037.00,5540.4323314,N,03730.3259597,E,4,35,0.4,215.2508,M,14.755,M,1.0,0031*7F
[164812.00]
$GPGGA,175038.00,5540.4323296,N,03730.3259573,E,4,35,0.4,215.2482,M,14.755,M,1.0,0031*72
[164813.00]
$GPGGA,175039.00,5540.4323311,N,03730.3259591,E,4,35,0.4,215.2504,M,14.755,M,1.0,0031*7E
[164814.00]
$GPGGA,175040.00,5540.4323316,N,03730.3259582,E,4,35,0.4,215.2502,M,14.755,M,1.0,0031*73
[164815.00]
$GPGGA,175041.00,5540.4323287,N,03730.3259592,E,4,35,0.4,215.2428,M,14.755,M,1.0,0031*73
[164816.00]
$GPGGA,175042.00,5540.4323307,N,03730.3259573,E,4,35,0.4,215.2462,M,14.755,M,1.0,0031*78
[164817.00]
$GPGGA,175043.00,5540.4323313,N,03730.3259580,E,4,35,0.4,215.2514,M,14.755,M,1.0,0031*70
[164818.00]
$GPGGA,175044.00,5540.4323313,N,03730.3259572,E,4,35,0.4,215.2519,M,14.755,M,1.0,0031*77
[164819.00]
$GPGGA,175045.00,5540.4323294,N,03730.3259610,E,4,35,0.4,215.2440,M,14.755,M,1.0,0031*72
[164820.00]
$GPGGA,175046.00,5540.4323289,N,03730.3259594,E,4,35,0.4,215.2431,M,14.755,M,1.0,0031*74
[164821.00]
$GPGGA,175047.00,5540.4323315,N,03730.3259590,E,4,35,0.4,215.2495,M,14.755,M,1.0,0031*7B
[164822.00]
$GPGGA,175048.00,5540.4323320,N,03730.3259591,E,4,35,0.4,215.2465,M,14.755,M,1.0,0031*7C
[164823.00]
$GPGGA,175049.00,5540.4323311,N,03730.3259599,E,4,35,0.4,215.2508,M,14.755,M,1.0,0031*7D
[164824.00]
$GPGGA,175050.00,5540.4323310,N,03730.3259596,E,4,35,0.4,215.2502,M,14.755,M,1.0,0031*71
[164825.00]
$GPGGA,175051.00,5540.4323315,N,03730.3259590,E,4,35,0.4,215.2482,M,14.755,M,1.0,0031*7A
[164826.00]
$GPGGA,175052.00,5540.4323299,N,03730.3259597,E,4,35,0.4,215.2476,M,14.755,M,1.0,0031*70
[164827.00]
$GPGGA,175053.00,5540.4323303,N,03730.3259594,E,4,35,0.4,215.2487,M,14.755,M,1.0,0031*7E
[164828.00]
$GPGGA,175054.00,5540.4323300,N,03730.3259597,E,4,35,0.4,215.2442,M,14.755,M,1.0,0031*70
[164829.00]
$GPGGA,175055.00,5540.4323303,N,03730.3259609,E,4,35,0.4,215.2478,M,14.755,M,1.0,0031*7F
[164830.00]
$GPGGA,175056.00,5540.4323298,N,03730.3259598,E,4,35,0.4,215.2491,M,14.755,M,1.0,0031*73
[164831.00]
$GPGGA,175057.00,5540.4323306,N,03730.3259611,E,4,35,0.4,215.2497,M,14.755,M,1.0,0031*70
[164832.00]
$GPGGA,175058.00,5540.4323291,N,03730.3259617,E,4,35,0.4,215.2495,M,14.755,M,1.0,0031*74
[164833.00]
$GPGGA,175059.00,5540.4323322,N,03730.3259610,E,4,35,0.4,215.2500,M,14.755,M,1.0,0031*76
[164834.00]
$GPGGA,175100.00,5540.4323308,N,03730.3259618,E,4,35,0.4,215.2506,M,14.755,M,1.0,0031*7D
[164835.00]
$GPGGA,175101.00,5540.4323317,N,03730.3259611,E,4,35,0.4,215.2486,M,14.755,M,1.0,0031*72
[164836.00]
$GPGGA,175102.00,5540.4323305,N,03730.3259616,E,4,35,0.4,215.2524,M,14.755,M,1.0,0031*7C
[164837.00]
$GPGGA,175103.00,5540.4323321,N,03730.3259604,E,4,35,0.4,215.2511,M,14.755,M,1.0,0031*7E
[164838.00]
$GPGGA,175104.00,5540.4323324,N,03730.3259580,E,4,35,0.4,215.2561,M,14.755,M,1.0,0031*74
[164839.00]
$GPGGA,175105.00,5540.4323328,N,03730.3259591,E,4,35,0.4,215.2522,M,14.755,M,1.0,0031*7E
[164840.00]
$GPGGA,175106.00,5540.4323324,N,03730.3259576,E,4,35,0.4,215.2569,M,14.755,M,1.0,0031*77
[164841.00]
$GPGGA,175107.00,5540.4323312,N,03730.3259560,E,4,35,0.4,215.2585,M,14.755,M,1.0,0031*76
[164842.00]
$GPGGA,175108.00,5540.4323315,N,03730.3259581,E,4,35,0.4,215.2585,M,14.755,M,1.0,0031*71
[164843.00]
$GPGGA,175109.00,5540.4323312,N,03730.3259578,E,4,35,0.4,215.2621,M,14.755,M,1.0,0031*7C
[164844.00]
$GPGGA,175110.00,5540.4323325,N,03730.3259596,E,4,35,0.4,215.2603,M,14.755,M,1.0,0031*70
[164845.00]
$GPGGA,175111.00,5540.4323328,N,03730.3259574,E,4,35,0.4,215.2618,M,14.755,M,1.0,0031*7A
[164846.00]
$GPGGA,175112.00,5540.4323333,N,03730.3259580,E,4,35,0.4,215.2625,M,14.755,M,1.0,0031*76
[164847.00]
$GPGGA,175113.00,5540.4323324,N,03730.3259597,E,4,35,0.4,215.2612,M,14.755,M,1.0,0031*73
[164848.00]
$GPGGA,175114.00,5540.4323334,N,03730.3259595,E,4,35,0.4,215.2577,M,14.755,M,1.0,0031*77
[164849.00]
$GPGGA,175115.00,5540.4323322,N,03730.3259583,E,4,35,0.4,215.2564,M,14.755,M,1.0,0031*74
[164850.00]
$GPGGA,175116.00,5540.4323326,N,03730.3259592,E,4,35,0.4,215.2689,M,14.755,M,1.0,0031*73
[164851.00]
$GPGGA,175117.00,5540.4323327,N,03730.3259583,E,4,35,0.4,215.2624,M,14.755,M,1.0,0031*74
[164852.00]
$GPGGA,175118.00,5540.4323327,N,03730.3259591,E,4,35,0.4,215.2595,M,14.755,M,1.0,0031*71
[164853.00]
$GPGGA,175119.00,5540.4323322,N,03730.3259572,E,4,35,0.4,215.2595,M,14.755,M,1.0,0031*78
[164854.00]
$GPGGA,175120.00,5540.4323317,N,03730.3259586,E,4,35,0.4,215.2607,M,14.755,M,1.0,0031*77
[164855.00]
$GPGGA,175121.00,5540.4323318,N,03730.3259578,E,4,35,0.4,215.2578,M,14.755,M,1.0,0031*73
[164856.00]
$GPGGA,175122.00,5540.4323328,N,03730.3259581,E,4,35,0.4,215.2589,M,14.755,M,1.0,0031*7B
[164857.00]
$GPGGA,175123.00,5540.4323330,N,03730.3259593,E,4,35,0.4,215.2556,M,14.755,M,1.0,0031*72
[164858.00]
$GPGGA,175124.00,5540.4323329,N,03730.3259599,E,4,35,0.4,215.2569,M,14.755,M,1.0,0031*7B
[164859.00]
$GPGGA,175125.00,5540.4323325,N,03730.3259581,E,4,35,0.4,215.2571,M,14.755,M,1.0,0031*76
[164900.00]
$GPGGA,175126.00,5540.4323324,N,03730.3259593,E,4,35,0.4,215.2557,M,14.755,M,1.0,0031*73
[164901.00]
$GPGGA,175127.00,5540.4323321,N,03730.3259586,E,4,35,0.4,215.2579,M,14.755,M,1.0,0031*7F
[164902.00]
$GPGGA,175128.00,5540.4323309,N,03730.3259587,E,4,35,0.4,215.2559,M,14.755,M,1.0,0031*79
[164903.00]
$GPGGA,175129.00,5540.4323314,N,03730.3259594,E,4,35,0.4,215.2593,M,14.755,M,1.0,0031*70
[164904.00]
$GPGGA,175130.00,5540.4323313,N,03730.3259600,E,4,35,0.4,215.2613,M,14.755,M,1.0,0031*7A
[164905.00]
$GPGGA,175131.00,5540.4323307,N,03730.3259588,E,4,35,0.4,215.2535,M,14.755,M,1.0,0031*7A
[164906.00]
$GPGGA,175132.00,5540.4323301,N,03730.3259587,E,4,35,0.4,215.2564,M,14.755,M,1.0,0031*74
[164907.00]
$GPGGA,175133.00,5540.4323305,N,03730.3259581,E,4,35,0.4,215.2548,M,14.755,M,1.0,0031*79
[164908.00]
$GPGGA,175134.00,5540.4323300,N,03730.3259590,E,4,35,0.4,215.2553,M,14.755,M,1.0,0031*71
[164909.00]
$GPGGA,175135.00,5540.4323305,N,03730.3259600,E,4,35,0.4,215.2553,M,14.755,M,1.0,0031*7F
[164910.00]
$GPGGA,175136.00,5540.4323293,N,03730.3259585,E,4,35,0.4,215.2562,M,14.755,M,1.0,0031*7E
[164911.00]
$GPGGA,175137.00,5540.4323302,N,03730.3259598,E,4,35,0.4,215.2530,M,14.755,M,1.0,0031*7D
[164912.00]
$GPGGA,175138.00,5540.4323313,N,03730.3259594,E,4,35,0.4,215.2552,M,14.755,M,1.0,0031*7A
[164913.00]
$GPGGA,175139.00,5540.4323314,N,03730.3259599,E,4,35,0.4,215.2576,M,14.755,M,1.0,0031*77
[164914.00]
$GPGGA,175140.00,5540.4323272,N,03730.3259610,E,4,35,0.4,215.2482,M,14.755,M,1.0,0031*70
[164915.00]
$GPGGA,175141.00,5540.4323298,N,03730.3259628,E,4,35,0.4,215.2511,M,14.755,M,1.0,0031*75
[164916.00]
$GPGGA,175142.00,5540.4323292,N,03730.3259614,E,4,35,0.4,215.2507,M,14.755,M,1.0,0031*74
[164917.00]
$GPGGA,175143.00,5540.4323294,N,03730.3259624,E,4,35,0.4,215.2529,M,14.755,M,1.0,0031*7C
[164918.00]
$GPGGA,175144.00,5540.4323262,N,03730.3259617,E,4,35,0.4,215.2462,M,14.755,M,1.0,0031*7C
[164919.00]
$GPGGA,175145.00,5540.4323278,N,03730.3259629,E,4,35,0.4,215.2523,M,14.755,M,1.0,0031*7F
[164920.00]
$GPGGA,175146.00,5540.4323298,N,03730.3259617,E,4,35,0.4,215.2474,M,14.755,M,1.0,0031*7C
[164921.00]
$GPGGA,175147.00,5540.4323274,N,03730.3259631,E,4,35,0.4,215.2411,M,14.755,M,1.0,0031*78
[164922.00]
$GPGGA,175148.00,5540.4323294,N,03730.3259613,E,4,35,0.4,215.2514,M,14.755,M,1.0,0031*7D
[164923.00]
$GPGGA,175149.00,5540.4323267,N,03730.3259615,E,4,35,0.4,215.2408,M,14.755,M,1.0,0031*7A
[164924.00]
$GPGGA,175150.00,5540.4323271,N,03730.3259618,E,4,35,0.4,215.2421,M,14.755,M,1.0,0031*73
[164925.00]
$GPGGA,175151.00,5540.4323278,N,03730.3259624,E,4,35,0.4,215.2371,M,14.755,M,1.0,0031*76
[164926.00]
$GPGGA,175152.00,5540.4323264,N,03730.3259634,E,4,35,0.4,215.2426,M,14.755,M,1.0,0031*7C
[164927.00]
$GPGGA,175153.00,5540.4323269,N,03730.3259629,E,4,35,0.4,215.2374,M,14.755,M,1.0,0031*7C
[164928.00]
$GPGGA,175154.00,5540.4323284,N,03730.3259625,E,4,35,0.4,215.2420,M,14.755,M,1.0,0031*72
[164929.00]
$GPGGA,175155.00,5540.4323288,N,03730.3259623,E,4,35,0.4,215.2397,M,14.755,M,1.0,0031*72
[164930.00]
$GPGGA,175156.00,5540.4323303,N,03730.3259636,E,4,35,0.4,215.2376,M,14.755,M,1.0,0031*78
[164931.00]
$GPGGA,175157.00,5540.4323295,N,03730.3259631,E,4,35,0.4,215.2343,M,14.755,M,1.0,0031*76
[164932.00]
$GPGGA,175158.00,5540.4323284,N,03730.3259627,E,4,35,0.4,215.2378,M,14.755,M,1.0,0031*76
[164933.00]
$GPGGA,175159.00,5540.4323298,N,03730.3259620,E,4,35,0.4,215.2338,M,14.755,M,1.0,0031*79
[164934.00]
$GPGGA,175200.00,5540.4323288,N,03730.3259635,E,4,35,0.4,215.2369,M,14.755,M,1.0,0031*77
[164935.00]
$GPGGA,175201.00,5540.4323286,N,03730.3259630,E,4,35,0.4,215.2351,M,14.755,M,1.0,0031*76
[164936.00]
$GPGGA,175202.00,5540.4323300,N,03730.3259624,E,4,35,0.4,215.2388,M,14.755,M,1.0,0031*7B
[164937.00]
$GPGGA,175203.00,5540.4323284,N,03730.3259628,E,4,35,0.4,215.2392,M,14.755,M,1.0,0031*70
[164938.00]
$GPGGA,175204.00,5540.4323286,N,03730.3259627,E,4,35,0.4,215.2375,M,14.755,M,1.0,0031*73
[164939.00]
$GPGGA,175205.00,5540.4323290,N,03730.3259642,E,4,35,0.4,215.2381,M,14.755,M,1.0,0031*7D
[164940.00]
$GPGGA,175206.00,5540.4323293,N,03730.3259625,E,4,35,0.4,215.2375,M,14.755,M,1.0,0031*77
[164941.00]
$GPGGA,175207.00,5540.4323295,N,03730.3259621,E,4,36,0.4,215.2382,M,14.755,M,1.0,0031*7F
[164942.00]
$GPGGA,175208.00,5540.4323305,N,03730.3259626,E,4,36,0.4,215.2352,M,14.755,M,1.0,0031*72
[164943.00]
$GPGGA,175209.00,5540.4323302,N,03730.3259638,E,4,36,0.4,215.2323,M,14.755,M,1.0,0031*7D
[164944.00]
$GPGGA,175210.00,5540.4323286,N,03730.3259628,E,4,36,0.4,215.2364,M,14.755,M,1.0,0031*7A
[164945.00]
$GPGGA,175211.00,5540.4323300,N,03730.3259631,E,4,36,0.4,215.2364,M,14.755,M,1.0,0031*7C
[164946.00]
$GPGGA,175212.00,5540.4323300,N,03730.3259639,E,4,36,0.4,215.2403,M,14.755,M,1.0,0031*71
[164947.00]
$GPGGA,175213.00,5540.4323300,N,03730.3259619,E,4,36,0.4,215.2388,M,14.755,M,1.0,0031*76
[164948.00]
$GPGGA,175214.00,5540.4323317,N,03730.3259628,E,4,36,0.4,215.2403,M,14.755,M,1.0,0031*71
[164949.00]
$GPGGA,175215.00,5540.4323306,N,03730.3259637,E,4,36,0.4,215.2379,M,14.755,M,1.0,0031*74
[164950.00]
$GPGGA,175216.00,5540.4323297,N,03730.3259636,E,4,36,0.4,215.2425,M,14.755,M,1.0,0031*71
[164951.00]
$GPGGA,175217.00,5540.4323297,N,03730.3259628,E,4,36,0.4,215.2324,M,14.755,M,1.0,0031*79
[164952.00]
$GPGGA,175218.00,5540.4323299,N,03730.3259622,E,4,36,0.4,215.2345,M,14.755,M,1.0,0031*75
[164953.00]
$GPGGA,175219.00,5540.4323306,N,03730.3259629,E,4,36,0.4,215.2335,M,14.755,M,1.0,0031*7F
[164954.00]
$GPGGA,175220.00,5540.4323306,N,03730.3259640,E,4,36,0.4,215.2371,M,14.755,M,1.0,0031*7A
[164955.00]
$GPGGA,175221.00,5540.4323301,N,03730.3259650,E,4,36,0.4,215.2385,M,14.755,M,1.0,0031*76
[164956.00]
$GPGGA,175222.00,5540.4323295,N,03730.3259647,E,4,36,0.4,215.2429,M,14.755,M,1.0,0031*7E
[164957.00]
$GPGGA,175223.00,5540.4323300,N,03730.3259661,E,4,36,0.4,215.2343,M,14.755,M,1.0,0031*7D
[164958.00]
$GPGGA,175224.00,5540.4323303,N,03730.3259655,E,4,36,0.4,215.2402,M,14.755,M,1.0,0031*7C
[164959.00]
$GPGGA,175225.00,5540.4323288,N,03730.3259651,E,4,36,0.4,215.2436,M,14.755,M,1.0,0031*7C
[165000.00]
$GPGGA,175226.00,5540.4323305,N,03730.3259646,E,4,36,0.4,215.2389,M,14.755,M,1.0,0031*7E
[165001.00]
[165001.00] ---PWR OFF---
[165001.00] ---PWR OFF---
[165001.00] ---PWR OFF---
[165002.00]
[165003.00]
[165004.00]
[165005.00]
[165006.00]
[165007.00]
[165008.00]
[165009.00]
[165010.00]
[165011.00]
[165012.00]
[165013.00]
[165014.00]
[165015.00]
[165016.00]
[165017.00] ---PWR ON---
[165017.00]
[165018.00]
[165019.00]
$GPGGA,000124.00,0000.0000000,N,00000.0000000,E,0,00,0.0,-6378154.1620,M,17.162,M,,*7B
[165020.00]
$GPGGA,000125.00,0000.0000000,N,00000.0000000,E,0,00,0.0,-6378154.1620,M,17.162,M,,*7A
[165021.00]
$GPGGA,000126.00,0000.0000000,N,00000.0000000,E,0,00,0.0,-6378154.1620,M,17.162,M,,*79
[165022.00]
$GPGGA,000127.00,0000.0000000,N,00000.0000000,E,0,00,0.0,-6378154.1620,M,17.162,M,,*78
[165023.00]
$GPGGA,000128.00,0000.0000000,N,00000.0000000,E,0,00,0.0,-6378154.1620,M,17.162,M,,*77
[165024.00]
$GPGGA,000129.00,0000.0000000,N,00000.0000000,E,0,00,0.0,-6378154.1620,M,17.162,M,,*76
[165025.00]
$GPGGA,000130.00,0000.0000000,N,00000.0000000,E,0,00,0.0,-6378154.1620,M,17.162,M,,*7E
[165026.00]
$GPGGA,175256.00,5540.4320656,N,03730.3273359,E,1,08,1.1,210.1913,M,14.755,M,,0031*56
[165027.00]
$GPGGA,175257.00,5540.4332704,N,03730.3259804,E,1,07,1.6,212.4464,M,14.755,M,,0031*5B
[165028.00]
$GPGGA,175258.00,5540.4333385,N,03730.3260208,E,1,07,1.6,212.7869,M,14.755,M,,0031*56
[165029.00]
$GPGGA,175259.00,5540.4333402,N,03730.3260256,E,1,07,1.6,212.9336,M,14.755,M,,0031*5B
[165030.00]
$GPGGA,175300.00,5540.4333729,N,03730.3260201,E,1,08,1.6,213.0381,M,14.755,M,,0031*55
[165031.00]
$GPGGA,175301.00,5540.4334095,N,03730.3260126,E,1,08,1.6,212.9637,M,14.755,M,,0031*55
[165032.00]
$GPGGA,175302.00,5540.4334710,N,03730.3259837,E,1,08,1.6,212.9000,M,14.755,M,,0031*5D
[165033.00]
$GPGGA,175303.00,5540.4328407,N,03730.3261382,E,1,09,1.1,211.7527,M,14.755,M,,0031*51
[165034.00]
$GPGGA,175304.00,5540.4328525,N,03730.3261713,E,1,09,1.1,211.9918,M,14.755,M,,0031*55
[165035.00]
$GPGGA,175305.00,5540.4329216,N,03730.3262522,E,1,09,1.1,212.0864,M,14.755,M,,0031*51
[165036.00]
$GPGGA,175306.00,5540.4329769,N,03730.3261774,E,1,09,1.1,212.0657,M,14.755,M,,0031*53
[165037.00]
$GPGGA,175303.00,5540.4329666,N,03730.3261733,E,1,09,1.1,212.1371,M,14.755,M,,0031*5B
[165038.00]
$GPGGA,175304.00,5540.4329732,N,03730.3261217,E,1,09,1.1,212.0381,M,14.755,M,,0031*51
[165039.00]
$GPGGA,175305.00,5540.4329723,N,03730.3261496,E,1,09,1.1,212.1732,M,14.755,M,,0031*52
[165040.00]
$GPGGA,175306.00,5540.4329477,N,03730.3261588,E,1,09,1.1,212.0627,M,14.755,M,,0031*59
[165041.00]
$GPGGA,175307.00,5540.4328857,N,03730.3261745,E,1,09,1.1,211.8797,M,14.755,M,,0031*55
[165042.00]
$GPGGA,175308.00,5540.4328423,N,03730.3262032,E,1,09,1.1,211.9798,M,14.755,M,,0031*5F
[165043.00]
