[164001.00]
$GPGGA,174227.00,5540.4323382,N,03730.3259537,E,4,27,0.5,216.128,M,13.886,M,1.0,0031*4B
[164002.00]
$GPGGA,174228.00,5540.4323386,N,03730.3259527,E,4,27,0.5,216.126,M,13.886,M,1.0,0031*4F
[164003.00]
$GPGGA,174229.00,5540.4323377,N,03730.3259534,E,4,27,0.5,216.125,M,13.886,M,1.0,0031*41
[164004.00]
$GPGGA,174230.00,5540.4323384,N,03730.3259532,E,4,27,0.5,216.130,M,13.886,M,1.0,0031*47
[164005.00]
$GPGGA,174231.00,5540.4323380,N,03730.3259522,E,4,27,0.5,216.129,M,13.886,M,1.0,0031*4B
[164006.00]
$GPGGA,174232.00,5540.4323385,N,03730.3259529,E,4,27,0.5,216.127,M,13.886,M,1.0,0031*48
[164007.00]
$GPGGA,174233.00,5540.4323381,N,03730.3259532,E,4,27,0.5,216.125,M,13.886,M,1.0,0031*45
[164008.00]
$GPGGA,174234.00,5540.4323369,N,03730.3259531,E,4,27,0.5,216.124,M,13.886,M,1.0,0031*46
[164009.00]
$GPGGA,174235.00,5540.4323375,N,03730.3259523,E,4,27,0.5,216.125,M,13.886,M,1.0,0031*48
[164010.00]
[164010.00] ---PWR OFF---
[164011.00]
[164012.00]
[164013.00]
[164014.00]
[164015.00]
[164016.00]
[164017.00]
[164018.00]
[164019.00]
[164020.00]
[164021.00]
[164022.00]
[164023.00]
[164024.00]
[164025.00]
[164026.00] ---PWR ON---
[164026.00]
[164027.00]
$PASHR,PWR,ON*0C
[164028.00]
[164029.00]
[164030.00]
[164031.00]
[164032.00]
[164033.00]
[164034.00]
[164035.00]
[164036.00]
[164037.00]
[164038.00]
[164039.00]
[164040.00]
[164041.00]
[164042.00]
[164043.00]
[164044.00]
[164045.00]
$GPGGA,,,,,,0,0,,,M,,M,,*56
$GPGGA,,,,,,0,0,,,M,,M,,*56
$PMGNGO*1C
[164046.00]
$GPGGA,,,,,,0,0,,,M,,M,,*56
[164047.00]
$GPGGA,,,,,,0,0,,,M,,M,,*56
[164048.00]
$GPGGA,174314.00,,,,,0,0,,,M,,M,,*7C
[164049.00]
$GPGGA,174315.00,,,,,0,4,3.7,,M,,M,,*53
[164050.00]
$GPGGA,174316.00,5540.4327077,N,03730.3269007,E,1,9,3.1,214.575,M,13.886,M,,*5D
[164051.00]
$GPGGA,174317.00,5540.4312899,N,03730.3271340,E,1,11,2.1,210.376,M,13.886,M,,*62
[164052.00]
$GPGGA,174318.00,5540.4313277,N,03730.3270380,E,2,12,1.7,210.849,M,13.886,M,0.8,0031*4D
[164053.00]
$GPGGA,174319.00,5540.4313463,N,03730.3270073,E,2,23,0.6,210.995,M,13.886,M,1.8,0031*43
[164054.00]
$GPGGA,174320.00,5540.4319886,N,03730.3265290,E,2,24,0.6,213.575,M,13.886,M,0.8,0031*48
[164055.00]
$GPGGA,174321.00,5540.4320031,N,03730.3265156,E,2,25,0.5,213.622,M,13.886,M,1.8,0031*4C
[164056.00]
$GPGGA,174322.00,5540.4320790,N,03730.3264495,E,2,25,0.5,213.998,M,13.886,M,1.8,0031*46
[164057.00]
$GPGGA,174323.00,5540.4321640,N,03730.3263995,E,2,25,0.5,214.303,M,13.886,M,1.8,0031*4F
[164058.00]
$GPGGA,174324.00,5540.4322770,N,03730.3263550,E,5,12,0.5,216.078,M,13.886,M,2.0,0031*49
[164059.00]
$GPGGA,174325.00,5540.4325842,N,03730.3262559,E,5,16,0.5,217.030,M,13.886,M,2.0,0031*40
[164100.00]
$GPGGA,174326.00,5540.4326188,N,03730.3262152,E,5,16,0.5,217.214,M,13.886,M,2.0,0031*44
[164101.00]
$GPGGA,174327.00,5540.4323396,N,03730.3259502,E,4,16,0.5,216.114,M,13.886,M,2.0,0031*47
[164102.00]
$GPGGA,174328.00,5540.4323387,N,03730.3259501,E,4,17,0.5,216.116,M,13.886,M,2.0,0031*48
[164103.00]
$GPGGA,174329.00,5540.4323402,N,03730.3259502,E,4,21,0.5,216.108,M,13.886,M,1.0,0031*49
[164104.00]
$GPGGA,174330.00,5540.4323399,N,03730.3259513,E,4,21,0.5,216.109,M,13.886,M,2.0,0031*46
[164105.00]
$GPGGA,174331.00,5540.4323382,N,03730.3259506,E,4,21,0.5,216.115,M,13.886,M,2.0,0031*44
[164106.00]
$GPGGA,174332.00,5540.4323381,N,03730.3259497,E,4,21,0.5,216.111,M,13.886,M,2.0,0031*49
[164107.00]
$GPGGA,174333.00,5540.4323378,N,03730.3259489,E,4,21,0.5,216.105,M,13.886,M,2.0,0031*44
[164108.00]
$GPGGA,174334.00,5540.4323387,N,03730.3259496,E,4,21,0.5,216.110,M,13.886,M,2.0,0031*49
[164109.00]
$GPGGA,174335.00,5540.4323382,N,03730.3259507,E,4,21,0.5,216.114,M,13.886,M,2.0,0031*40
[164110.00]
$GPGGA,174336.00,5540.4323397,N,03730.3259507,E,4,25,0.5,216.112,M,13.886,M,2.0,0031*45
[164111.00]
$GPGGA,174337.00,5540.4323385,N,03730.3259510,E,4,26,0.5,216.115,M,13.886,M,2.0,0031*45
[164112.00]
$GPGGA,174338.00,5540.4323375,N,03730.3259516,E,4,26,0.5,216.116,M,13.886,M,2.0,0031*40
[164113.00]
$GPGGA,174339.00,5540.4323368,N,03730.3259513,E,4,26,0.5,216.115,M,13.886,M,2.0,0031*4B
[164114.00]
$GPGGA,174340.00,5540.4323363,N,03730.3259500,E,4,26,0.5,216.110,M,13.886,M,2.0,0031*49
[164115.00]
$GPGGA,174341.00,5540.4323362,N,03730.3259512,E,4,27,0.5,216.111,M,13.886,M,2.0,0031*4A
[164116.00]
$GPGGA,174342.00,5540.4323360,N,03730.3259512,E,4,28,0.5,216.115,M,13.886,M,1.0,0031*43
[164117.00]
$GPGGA,174343.00,5540.4323357,N,03730.3259506,E,4,28,0.5,216.115,M,13.886,M,1.0,0031*43
[164118.00]
$GPGGA,174344.00,5540.4323363,N,03730.3259515,E,4,28,0.5,216.116,M,13.886,M,1.0,0031*42
[164119.00]
$GPGGA,174345.00,5540.4323364,N,03730.3259517,E,4,28,0.5,216.116,M,13.886,M,1.0,0031*46
[164120.00]
$GPGGA,174346.00,5540.4323362,N,03730.3259514,E,4,28,0.4,216.116,M,13.886,M,1.0,0031*41
[164121.00]
$GPGGA,174347.00,5540.4323350,N,03730.3259508,E,4,28,0.4,216.114,M,13.886,M,1.0,0031*4E
[164122.00]
$GPGGA,174348.00,5540.4323349,N,03730.3259508,E,4,28,0.4,216.118,M,13.886,M,2.0,0031*46
[164123.00]
$GPGGA,174349.00,5540.4323353,N,03730.3259502,E,4,28,0.5,216.112,M,13.886,M,1.0,0031*4E
[164124.00]
$GPGGA,174350.00,5540.4323358,N,03730.3259512,E,4,28,0.5,216.119,M,13.886,M,1.0,0031*47
[164125.00]
$GPGGA,174351.00,5540.4323358,N,03730.3259511,E,4,28,0.5,216.115,M,13.886,M,1.0,0031*49
[164126.00]
$GPGGA,174352.00,5540.4323359,N,03730.3259505,E,4,28,0.5,216.120,M,13.886,M,1.0,0031*48
[164127.00]
$GPGGA,174353.00,5540.4323357,N,03730.3259505,E,4,28,0.5,216.119,M,13.886,M,1.0,0031*4D
[164128.00]
$GPGGA,174354.00,5540.4323353,N,03730.3259493,E,4,28,0.5,216.118,M,13.886,M,1.0,0031*41
[164129.00]
$GPGGA,174355.00,5540.4323358,N,03730.3259500,E,4,28,0.5,216.116,M,13.886,M,2.0,0031*4D
[164130.00]
$GPGGA,174356.00,5540.4323350,N,03730.3259505,E,4,28,0.5,216.113,M,13.886,M,2.0,0031*46
[164131.00]
$GPGGA,174357.00,5540.4323343,N,03730.3259508,E,4,28,0.5,216.119,M,13.886,M,1.0,0031*41
[164132.00]
$GPGGA,174358.00,5540.4323340,N,03730.3259504,E,4,28,0.5,216.119,M,13.886,M,2.0,0031*42
[164133.00]
$GPGGA,174359.00,5540.4323342,N,03730.3259495,E,4,28,0.5,216.118,M,13.886,M,2.0,0031*49
[164134.00]
$GPGGA,174400.00,5540.4323345,N,03730.3259518,E,4,28,0.5,216.123,M,13.886,M,2.0,0031*49
[164135.00]
$GPGGA,174401.00,5540.4323343,N,03730.3259526,E,4,28,0.5,216.123,M,13.886,M,2.0,0031*43
[164136.00]
$GPGGA,174402.00,5540.4323353,N,03730.3259518,E,4,28,0.5,216.121,M,13.886,M,2.0,0031*4E
[164137.00]
$GPGGA,174403.00,5540.4323353,N,03730.3259519,E,4,28,0.5,216.122,M,13.886,M,2.0,0031*4D
[164138.00]
$GPGGA,174404.00,5540.4323346,N,03730.3259516,E,4,28,0.5,216.123,M,13.886,M,2.0,0031*40
[164139.00]
$GPGGA,174405.00,5540.4323342,N,03730.3259501,E,4,28,0.5,216.123,M,13.886,M,2.0,0031*43
[164140.00]
$GPGGA,174406.00,5540.4323345,N,03730.3259504,E,4,28,0.5,216.121,M,13.886,M,2.0,0031*40
[164141.00]
$GPGGA,174407.00,5540.4323344,N,03730.3259495,E,4,28,0.5,216.123,M,13.886,M,2.0,0031*4B
[164142.00]
$GPGGA,174408.00,5540.4323335,N,03730.3259500,E,4,28,0.5,216.122,M,13.886,M,2.0,0031*4E
[164143.00]
$GPGGA,174409.00,5540.4323342,N,03730.3259496,E,4,28,0.5,216.123,M,13.886,M,2.0,0031*40
[164144.00]
$GPGGA,174410.00,5540.4323338,N,03730.3259522,E,4,28,0.5,216.122,M,13.886,M,1.0,0031*49
[164145.00]
$GPGGA,174411.00,5540.4323339,N,03730.3259534,E,4,28,0.5,216.122,M,13.886,M,2.0,0031*4D
[164146.00]
$GPGGA,174412.00,5540.4323342,N,03730.3259532,E,4,28,0.5,216.122,M,13.886,M,2.0,0031*44
[164147.00]
$GPGGA,174413.00,5540.4323339,N,03730.3259525,E,4,28,0.5,216.123,M,13.886,M,2.0,0031*4E
[164148.00]
$GPGGA,174414.00,5540.4323334,N,03730.3259522,E,4,28,0.5,216.124,M,13.886,M,2.0,0031*44
[164149.00]
$GPGGA,174415.00,5540.4323339,N,03730.3259512,E,4,28,0.5,216.124,M,13.886,M,1.0,0031*48
[164150.00]
$GPGGA,174416.00,5540.4323342,N,03730.3259510,E,4,28,0.5,216.125,M,13.886,M,2.0,0031*47
[164151.00]
$GPGGA,174417.00,5540.4323339,N,03730.3259511,E,4,28,0.5,216.124,M,13.886,M,2.0,0031*4A
[164152.00]
$GPGGA,174418.00,5540.4323337,N,03730.3259503,E,4,28,0.5,216.120,M,13.886,M,2.0,0031*4C
[164153.00]
$GPGGA,174419.00,5540.4323333,N,03730.3259509,E,4,28,0.5,216.120,M,13.886,M,2.0,0031*43
[164154.00]
$GPGGA,174420.00,5540.4323331,N,03730.3259518,E,4,28,0.5,216.124,M,13.886,M,2.0,0031*4F
[164155.00]
$GPGGA,174421.00,5540.4323338,N,03730.3259505,E,4,28,0.5,216.122,M,13.886,M,2.0,0031*4D
[164156.00]
$GPGGA,174422.00,5540.4323340,N,03730.3259505,E,4,28,0.5,216.123,M,13.886,M,2.0,0031*40
[164157.00]
$GPGGA,174423.00,5540.4323337,N,03730.3259507,E,4,28,0.5,216.124,M,13.886,M,2.0,0031*44
[164158.00]
$GPGGA,174424.00,5540.4323336,N,03730.3259512,E,4,28,0.5,216.124,M,13.886,M,2.0,0031*46
[164159.00]
$GPGGA,174425.00,5540.4323333,N,03730.3259519,E,4,28,0.5,216.126,M,13.886,M,2.0,0031*4B
[164200.00]
$GPGGA,174426.00,5540.4323335,N,03730.3259512,E,4,28,0.5,216.122,M,13.886,M,2.0,0031*41
[164201.00]
$GPGGA,174427.00,5540.4323336,N,03730.3259512,E,4,28,0.5,216.122,M,13.886,M,2.0,0031*43
[164202.00]
$GPGGA,174428.00,5540.4323335,N,03730.3259524,E,4,28,0.5,216.123,M,13.886,M,2.0,0031*4B
[164203.00]
$GPGGA,174429.00,5540.4323339,N,03730.3259519,E,4,28,0.5,216.121,M,13.886,M,2.0,0031*4A
[164204.00]
$GPGGA,174430.00,5540.4323331,N,03730.3259507,E,4,28,0.5,216.122,M,13.886,M,2.0,0031*46
[164205.00]
$GPGGA,174431.00,5540.4323321,N,03730.3259507,E,4,28,0.5,216.124,M,13.886,M,2.0,0031*40
[164206.00]
$GPGGA,174432.00,5540.4323322,N,03730.3259505,E,4,28,0.5,216.125,M,13.886,M,2.0,0031*43
[164207.00]
$GPGGA,174433.00,5540.4323330,N,03730.3259506,E,4,28,0.5,216.125,M,13.886,M,2.0,0031*42
[164208.00]
$GPGGA,174434.00,5540.4323342,N,03730.3259511,E,4,28,0.5,216.126,M,13.886,M,2.0,0031*45
[164209.00]
$GPGGA,174435.00,5540.4323350,N,03730.3259524,E,4,28,0.5,216.128,M,13.886,M,2.0,0031*4F
[164210.00]
$GPGGA,174436.00,5540.4323351,N,03730.3259525,E,4,28,0.5,216.130,M,13.886,M,2.0,0031*45
[164211.00]
$GPGGA,174437.00,5540.4323336,N,03730.3259506,E,4,28,0.5,216.128,M,13.886,M,2.0,0031*4D
[164212.00]
$GPGGA,174438.00,5540.4323329,N,03730.3259501,E,4,28,0.5,216.127,M,13.886,M,2.0,0031*44
[164213.00]
$GPGGA,174439.00,5540.4323338,N,03730.3259516,E,4,28,0.5,216.128,M,13.886,M,1.0,0031*4F
[164214.00]
$GPGGA,174440.00,5540.4323334,N,03730.3259517,E,4,28,0.5,216.128,M,13.886,M,2.0,0031*4F
[164215.00]
$GPGGA,174441.00,5540.4323325,N,03730.3259516,E,4,28,0.5,216.127,M,13.886,M,1.0,0031*43
[164216.00]
$GPGGA,174442.00,5540.4323322,N,03730.3259519,E,4,28,0.5,216.124,M,13.886,M,2.0,0031*48
[164217.00]
$GPGGA,174443.00,5540.4323332,N,03730.3259520,E,4,28,0.5,216.121,M,13.886,M,2.0,0031*47
[164218.00]
$GPGGA,174444.00,5540.4323330,N,03730.3259517,E,4,28,0.5,216.124,M,13.886,M,2.0,0031*43
[164219.00]
$GPGGA,174445.00,5540.4323324,N,03730.3259524,E,4,28,0.5,216.127,M,13.886,M,2.0,0031*44
[164220.00]
$GPGGA,174446.00,5540.4323331,N,03730.3259531,E,4,28,0.5,216.128,M,13.886,M,2.0,0031*48
[164221.00]
$GPGGA,174447.00,5540.4323341,N,03730.3259509,E,4,28,0.5,216.126,M,13.886,M,2.0,0031*4B
[164222.00]
$GPGGA,174448.00,5540.4323343,N,03730.3259500,E,4,28,0.5,216.123,M,13.886,M,2.0,0031*4A
[164223.00]
$GPGGA,174449.00,5540.4323338,N,03730.3259510,E,4,28,0.5,216.125,M,13.886,M,2.0,0031*40
[164224.00]
$GPGGA,174450.00,5540.4323335,N,03730.3259523,E,4,28,0.5,216.128,M,13.886,M,2.0,0031*48
[164225.00]
$GPGGA,174451.00,5540.4323330,N,03730.3259526,E,4,28,0.5,216.128,M,13.886,M,1.0,0031*4A
[164226.00]
$GPGGA,174452.00,5540.4323330,N,03730.3259534,E,4,28,0.5,216.127,M,13.886,M,2.0,0031*46
[164227.00]
$GPGGA,174453.00,5540.4323333,N,03730.3259506,E,4,28,0.5,216.123,M,13.886,M,2.0,0031*41
[164228.00]
$GPGGA,174454.00,5540.4323340,N,03730.3259509,E,4,28,0.5,216.126,M,13.886,M,1.0,0031*4B
[164229.00]
$GPGGA,174455.00,5540.4323345,N,03730.3259506,E,4,28,0.5,216.129,M,13.886,M,2.0,0031*4C
[164230.00]
$GPGGA,174456.00,5540.4323340,N,03730.3259510,E,4,28,0.5,216.131,M,13.886,M,2.0,0031*44
[164231.00]
$GPGGA,174457.00,5540.4323337,N,03730.3259527,E,4,28,0.5,216.131,M,13.886,M,2.0,0031*41
[164232.00]
$GPGGA,174458.00,5540.4323338,N,03730.3259524,E,4,28,0.5,216.128,M,13.886,M,2.0,0031*4A
[164233.00]
$GPGGA,174459.00,5540.4323339,N,03730.3259516,E,4,28,0.5,216.124,M,13.886,M,2.0,0031*47
[164234.00]
$GPGGA,174500.00,5540.4323335,N,03730.3259514,E,4,28,0.5,216.128,M,13.886,M,2.0,0031*48
[164235.00]
$GPGGA,174501.00,5540.4323327,N,03730.3259496,E,4,28,0.5,216.128,M,13.886,M,2.0,0031*41
[164236.00]
$GPGGA,174502.00,5540.4323327,N,03730.3259482,E,4,28,0.5,216.122,M,13.886,M,2.0,0031*4D
[164237.00]
$GPGGA,174503.00,5540.4323334,N,03730.3259497,E,4,28,0.5,216.125,M,13.886,M,2.0,0031*4D
[164238.00]
$GPGGA,174504.00,5540.4323343,N,03730.3259506,E,4,28,0.5,216.128,M,13.886,M,2.0,0031*4E
[164239.00]
$GPGGA,174505.00,5540.4323339,N,03730.3259516,E,4,28,0.5,216.128,M,13.886,M,1.0,0031*40
[164240.00]
$GPGGA,174506.00,5540.4323343,N,03730.3259522,E,4,28,0.5,216.129,M,13.886,M,2.0,0031*4B
[164241.00]
$GPGGA,174507.00,5540.4323339,N,03730.3259505,E,4,28,0.5,216.126,M,13.886,M,1.0,0031*4E
[164242.00]
$GPGGA,174508.00,5540.4323341,N,03730.3259508,E,4,28,0.5,216.126,M,13.886,M,2.0,0031*40
[164243.00]
$GPGGA,174509.00,5540.4323340,N,03730.3259514,E,4,28,0.5,216.126,M,13.886,M,2.0,0031*4D
[164244.00]
$GPGGA,174510.00,5540.4323348,N,03730.3259502,E,4,28,0.5,216.123,M,13.886,M,2.0,0031*4F
[164245.00]
$GPGGA,174511.00,5540.4323349,N,03730.3259488,E,4,28,0.5,216.125,M,13.886,M,2.0,0031*4A
[164246.00]
$GPGGA,174512.00,5540.4323343,N,03730.3259497,E,4,28,0.5,216.129,M,13.886,M,2.0,0031*41
[164247.00]
$GPGGA,174513.00,5540.4323344,N,03730.3259493,E,4,28,0.5,216.127,M,13.886,M,2.0,0031*4D
[164248.00]
$GPGGA,174514.00,5540.4323352,N,03730.3259498,E,4,28,0.5,216.129,M,13.886,M,2.0,0031*48
[164249.00]
$GPGGA,174515.00,5540.4323353,N,03730.3259503,E,4,28,0.5,216.133,M,13.886,M,2.0,0031*40
[164250.00]
$GPGGA,174516.00,5540.4323346,N,03730.3259501,E,4,28,0.5,216.129,M,13.886,M,2.0,0031*4E
[164251.00]
$GPGGA,174517.00,5540.4323338,N,03730.3259499,E,4,28,0.5,216.128,M,13.886,M,2.0,0031*47
[164252.00]
$GPGGA,174518.00,5540.4323333,N,03730.3259503,E,4,28,0.5,216.128,M,13.886,M,2.0,0031*41
[164253.00]
$GPGGA,174519.00,5540.4323339,N,03730.3259511,E,4,28,0.5,216.126,M,13.886,M,2.0,0031*47
[164254.00]
$GPGGA,174520.00,5540.4323336,N,03730.3259509,E,4,28,0.5,216.127,M,13.886,M,1.0,0031*49
[164255.00]
$GPGGA,174521.00,5540.4323335,N,03730.3259515,E,4,28,0.5,216.129,M,13.886,M,2.0,0031*4B
[164256.00]
$GPGGA,174522.00,5540.4323339,N,03730.3259523,E,4,28,0.5,216.131,M,13.886,M,2.0,0031*48
[164257.00]
$GPGGA,174523.00,5540.4323340,N,03730.3259519,E,4,28,0.5,216.129,M,13.886,M,2.0,0031*47
[164258.00]
$GPGGA,174524.00,5540.4323335,N,03730.3259503,E,4,28,0.5,216.129,M,13.886,M,2.0,0031*49
[164259.00]
$GPGGA,174525.00,5540.4323338,N,03730.3259498,E,4,28,0.5,216.128,M,13.886,M,2.0,0031*47
[164300.00]
$GPGGA,174526.00,5540.4323345,N,03730.3259496,E,4,28,0.5,216.129,M,13.886,M,2.0,0031*41
[164301.00]
$GPGGA,174527.00,5540.4323352,N,03730.3259492,E,4,28,0.5,216.128,M,13.886,M,2.0,0031*43
[164302.00]
$GPGGA,174528.00,5540.4323351,N,03730.3259499,E,4,28,0.5,216.128,M,13.886,M,2.0,0031*44
[164303.00]
$GPGGA,174529.00,5540.4323348,N,03730.3259500,E,4,28,0.5,216.128,M,13.886,M,2.0,0031*4C
[164304.00]
$GPGGA,174530.00,5540.4323345,N,03730.3259492,E,4,28,0.5,216.125,M,13.886,M,2.0,0031*4E
[164305.00]
$GPGGA,174531.00,5540.4323342,N,03730.3259499,E,4,28,0.5,216.127,M,13.886,M,2.0,0031*41
[164306.00]
$GPGGA,174532.00,5540.4323340,N,03730.3259503,E,4,28,0.5,216.127,M,13.886,M,1.0,0031*41
[164307.00]
$GPGGA,174533.00,5540.4323348,N,03730.3259495,E,4,28,0.5,216.127,M,13.886,M,2.0,0031*45
[164308.00]
$GPGGA,174534.00,5540.4323351,N,03730.3259498,E,4,28,0.5,216.130,M,13.886,M,2.0,0031*41
[164309.00]
$GPGGA,174535.00,5540.4323351,N,03730.3259514,E,4,28,0.5,216.132,M,13.886,M,2.0,0031*47
[164310.00]
$GPGGA,174536.00,5540.4323345,N,03730.3259515,E,4,28,0.5,216.132,M,13.886,M,2.0,0031*40
[164311.00]
$GPGGA,174537.00,5540.4323338,N,03730.3259509,E,4,28,0.5,216.129,M,13.886,M,2.0,0031*4C
[164312.00]
$GPGGA,174538.00,5540.4323337,N,03730.3259510,E,4,28,0.5,216.127,M,13.886,M,2.0,0031*4A
[164313.00]
$GPGGA,174539.00,5540.4323340,N,03730.3259504,E,4,28,0.5,216.126,M,13.886,M,2.0,0031*4F
[164314.00]
$GPGGA,174540.00,5540.4323348,N,03730.3259498,E,4,28,0.5,216.131,M,13.886,M,2.0,0031*4B
[164315.00]
$GPGGA,174541.00,5540.4323348,N,03730.3259506,E,4,28,0.5,216.135,M,13.886,M,2.0,0031*48
[164316.00]
$GPGGA,174542.00,5540.4323348,N,03730.3259512,E,4,28,0.5,216.131,M,13.886,M,2.0,0031*4A
[164317.00]
$GPGGA,174543.00,5540.4323341,N,03730.3259509,E,4,28,0.5,216.129,M,13.886,M,2.0,0031*41
[164318.00]
$GPGGA,174544.00,5540.4323337,N,03730.3259502,E,4,28,0.5,216.127,M,13.886,M,2.0,0031*42
[164319.00]
$GPGGA,174545.00,5540.4323344,N,03730.3259517,E,4,28,0.5,216.133,M,13.886,M,1.0,0031*45
[164320.00]
$GPGGA,174546.00,5540.4323345,N,03730.3259521,E,4,28,0.5,216.133,M,13.886,M,2.0,0031*41
[164321.00]
$GPGGA,174547.00,5540.4323340,N,03730.3259522,E,4,28,0.5,216.132,M,13.886,M,2.0,0031*47
[164322.00]
$GPGGA,174548.00,5540.4323350,N,03730.3259517,E,4,28,0.5,216.132,M,13.886,M,2.0,0031*4F
[164323.00]
$GPGGA,174549.00,5540.4323356,N,03730.3259501,E,4,28,0.5,216.127,M,13.886,M,2.0,0031*4B
[164324.00]
$GPGGA,174550.00,5540.4323354,N,03730.3259494,E,4,28,0.5,216.132,M,13.886,M,2.0,0031*48
[164325.00]
$GPGGA,174551.00,5540.4323350,N,03730.3259498,E,4,28,0.5,216.133,M,13.886,M,2.0,0031*40
[164326.00]
$GPGGA,174552.00,5540.4323341,N,03730.3259499,E,4,28,0.5,216.129,M,13.886,M,2.0,0031*49
[164327.00]
[164327.00] ---PWR OFF---
[164328.00]
[164329.00]
[164330.00]
[164331.00]
[164332.00]
[164333.00]
[164334.00]
[164335.00]
[164336.00]
[164337.00]
[164338.00]
[164339.00]
[164340.00]
[164341.00]
[164342.00]
[164343.00] ---PWR ON---
[164343.00]
[164344.00]
$PASHR,PWR,ON*0C
[164345.00]
[164346.00]
[164347.00]
[164348.00]
[164349.00]
[164350.00]
[164351.00]
[164352.00]
[164353.00]
[164354.00]
[164355.00]
[164356.00]
[164357.00]
[164358.00]
[164359.00]
[164400.00]
[164401.00]
$GPGGA,,,,,,0,0,,,M,,M,,*56
$GPGGA,,,,,,0,0,,,M,,M,,*56
[164402.00]
$PMGNGO*1C
$GPGGA,,,,,,0,0,,,M,,M,,*56
[164403.00]
$GPGGA,,,,,,0,0,,,M,,M,,*56
[164404.00]
$GPGGA,,,,,,0,0,,,M,,M,,*56
[164405.00]
$GPGGA,,,,,,0,0,,,M,,M,,*56
[164406.00]
$GPGGA,174632.00,,,,,0,0,,,M,,M,,*7D
[164407.00]
$GPGGA,174633.00,,,,,0,0,,,M,,M,,*7C
[164408.00]
$GPGGA,174634.00,5540.4326459,N,03730.3260818,E,2,16,0.9,213.272,M,13.886,M,1.8,0031*4A
[164409.00]
$GPGGA,174635.00,5540.4327817,N,03730.3260243,E,2,18,0.8,213.679,M,13.886,M,1.8,0031*48
[164410.00]
$GPGGA,174636.00,5540.4327875,N,03730.3260194,E,2,19,0.8,213.719,M,13.886,M,0.8,0031*41
[164411.00]
$GPGGA,174637.00,5540.4327782,N,03730.3260264,E,2,29,0.5,213.731,M,13.886,M,1.8,0031*4E
[164412.00]
$GPGGA,174638.00,5540.4323382,N,03730.3259478,E,4,14,0.5,216.165,M,13.886,M,1.0,0031*42
[164413.00]
$GPGGA,174639.00,5540.4323391,N,03730.3259483,E,4,14,0.5,216.168,M,13.886,M,2.0,0031*4B
[164414.00]
$GPGGA,174640.00,5540.4323390,N,03730.3259478,E,4,14,0.5,216.170,M,13.886,M,2.0,0031*49
[164415.00]
$GPGGA,174641.00,5540.4323375,N,03730.3259472,E,4,15,0.5,216.167,M,13.886,M,2.0,0031*4E
[164416.00]
$GPGGA,174642.00,5540.4323354,N,03730.3259486,E,4,16,0.5,216.159,M,13.886,M,2.0,0031*4B
[164417.00]
$GPGGA,174643.00,5540.4323359,N,03730.3259501,E,4,23,0.5,216.163,M,13.886,M,2.0,0031*46
[164418.00]
$GPGGA,174644.00,5540.4323362,N,03730.3259501,E,4,23,0.5,216.147,M,13.886,M,2.0,0031*4F
[164419.00]
$GPGGA,174645.00,5540.4323367,N,03730.3259501,E,4,23,0.5,216.145,M,13.886,M,2.0,0031*49
[164420.00]
$GPGGA,174646.00,5540.4323365,N,03730.3259514,E,4,24,0.5,216.141,M,13.886,M,2.0,0031*4F
[164421.00]
$GPGGA,174647.00,5540.4323363,N,03730.3259494,E,4,26,0.5,216.137,M,13.886,M,2.0,0031*42
[164422.00]
$GPGGA,174648.00,5540.4323359,N,03730.3259498,E,4,26,0.5,216.137,M,13.886,M,2.0,0031*48
[164423.00]
$GPGGA,174649.00,5540.4323357,N,03730.3259475,E,4,26,0.5,216.137,M,13.886,M,2.0,0031*44
[164424.00]
$GPGGA,174650.00,5540.4323356,N,03730.3259476,E,4,26,0.5,216.141,M,13.886,M,2.0,0031*4F
[164425.00]
$GPGGA,174651.00,5540.4323363,N,03730.3259491,E,4,28,0.5,216.141,M,13.886,M,1.0,0031*4C
[164426.00]
$GPGGA,174652.00,5540.4323361,N,03730.3259490,E,4,28,0.5,216.144,M,13.886,M,2.0,0031*4A
[164427.00]
$GPGGA,174653.00,5540.4323352,N,03730.3259491,E,4,28,0.5,216.140,M,13.886,M,2.0,0031*4E
[164428.00]
$GPGGA,174654.00,5540.4323342,N,03730.3259502,E,4,28,0.5,216.137,M,13.886,M,2.0,0031*43
[164429.00]
$GPGGA,174655.00,5540.4323347,N,03730.3259499,E,4,28,0.5,216.137,M,13.886,M,2.0,0031*44
[164430.00]
$GPGGA,174656.00,5540.4323351,N,03730.3259495,E,4,28,0.5,216.137,M,13.886,M,2.0,0031*4C
[164431.00]
$GPGGA,174657.00,5540.4323352,N,03730.3259495,E,4,28,0.5,216.138,M,13.886,M,2.0,0031*41
[164432.00]
$GPGGA,174658.00,5540.4323352,N,03730.3259487,E,4,28,0.5,216.136,M,13.886,M,2.0,0031*43
[164433.00]
$GPGGA,174659.00,5540.4323348,N,03730.3259479,E,4,28,0.5,216.133,M,13.886,M,2.0,0031*4D
[164434.00]
$GPGGA,174700.00,5540.4323349,N,03730.3259474,E,4,28,0.5,216.133,M,13.886,M,2.0,0031*4C
[164435.00]
$GPGGA,174701.00,5540.4323357,N,03730.3259476,E,4,28,0.4,216.135,M,13.886,M,2.0,0031*47
[164436.00]
$GPGGA,174702.00,5540.4323355,N,03730.3259477,E,4,28,0.4,216.135,M,13.886,M,2.0,0031*47
[164437.00]
$GPGGA,174703.00,5540.4323354,N,03730.3259468,E,4,28,0.4,216.132,M,13.886,M,2.0,0031*4E
[164438.00]
$GPGGA,174704.00,5540.4323355,N,03730.3259463,E,4,28,0.4,216.132,M,13.886,M,2.0,0031*43
[164439.00]
$GPGGA,174705.00,5540.4323347,N,03730.3259463,E,4,28,0.4,216.133,M,13.886,M,2.0,0031*40
[164440.00]
$GPGGA,174706.00,5540.4323340,N,03730.3259474,E,4,28,0.4,216.133,M,13.886,M,2.0,0031*42
[164441.00]
$GPGGA,174707.00,5540.4323345,N,03730.3259491,E,4,28,0.4,216.134,M,13.886,M,2.0,0031*4A
[164442.00]
$GPGGA,174708.00,5540.4323350,N,03730.3259479,E,4,28,0.4,216.134,M,13.886,M,2.0,0031*47
[164443.00]
$GPGGA,174709.00,5540.4323348,N,03730.3259461,E,4,28,0.4,216.131,M,13.886,M,2.0,0031*43
[164444.00]
$GPGGA,174710.00,5540.4323348,N,03730.3259459,E,4,28,0.4,216.133,M,13.886,M,2.0,0031*42
[164445.00]
$GPGGA,174711.00,5540.4323355,N,03730.3259463,E,4,28,0.4,216.136,M,13.886,M,1.0,0031*40
[164446.00]
$GPGGA,174712.00,5540.4323354,N,03730.3259458,E,4,28,0.4,216.138,M,13.886,M,2.0,0031*47
[164447.00]
$GPGGA,174713.00,5540.4323359,N,03730.3259473,E,4,28,0.4,216.135,M,13.886,M,2.0,0031*4F
[164448.00]
$GPGGA,174714.00,5540.4323364,N,03730.3259472,E,4,28,0.4,216.134,M,13.886,M,2.0,0031*46
[164449.00]
$GPGGA,174715.00,5540.4323359,N,03730.3259477,E,4,28,0.4,216.134,M,13.886,M,2.0,0031*4C
[164450.00]
$GPGGA,174716.00,5540.4323353,N,03730.3259471,E,4,29,0.4,216.130,M,13.886,M,2.0,0031*46
[164451.00]
$GPGGA,174717.00,5540.4323359,N,03730.3259469,E,4,29,0.4,216.135,M,13.886,M,1.0,0031*42
[164452.00]
$GPGGA,174718.00,5540.4323353,N,03730.3259459,E,4,29,0.4,216.133,M,13.886,M,2.0,0031*41
[164453.00]
$GPGGA,174719.00,5540.4323351,N,03730.3259456,E,4,29,0.4,216.132,M,13.886,M,2.0,0031*4C
[164454.00]
$GPGGA,174720.00,5540.4323353,N,03730.3259453,E,4,29,0.4,216.131,M,13.886,M,2.0,0031*42
[164455.00]
$GPGGA,174721.00,5540.4323351,N,03730.3259459,E,4,29,0.4,216.135,M,13.886,M,2.0,0031*4F
[164456.00]
$GPGGA,174722.00,5540.4323359,N,03730.3259465,E,4,29,0.4,216.139,M,13.886,M,2.0,0031*47
[164457.00]
$GPGGA,174723.00,5540.4323362,N,03730.3259460,E,4,29,0.4,216.136,M,13.886,M,2.0,0031*44
[164458.00]
$GPGGA,174724.00,5540.4323359,N,03730.3259461,E,4,29,0.4,216.138,M,13.886,M,2.0,0031*44
[164459.00]
$GPGGA,174725.00,5540.4323360,N,03730.3259462,E,4,29,0.4,216.135,M,13.886,M,1.0,0031*42
[164500.00]
$GPGGA,174726.00,5540.4323356,N,03730.3259466,E,4,29,0.4,216.136,M,13.886,M,2.0,0031*40
[164501.00]
$GPGGA,174727.00,5540.4323356,N,03730.3259466,E,4,29,0.4,216.137,M,13.886,M,2.0,0031*40
[164502.00]
$GPGGA,174728.00,5540.4323356,N,03730.3259454,E,4,29,0.4,216.135,M,13.886,M,2.0,0031*4C
[164503.00]
$GPGGA,174729.00,5540.4323355,N,03730.3259461,E,4,29,0.4,216.135,M,13.886,M,2.0,0031*48
[164504.00]
$GPGGA,174730.00,5540.4323360,N,03730.3259464,E,4,29,0.4,216.138,M,13.886,M,1.0,0031*4D
[164505.00]
$GPGGA,174731.00,5540.4323358,N,03730.3259452,E,4,29,0.4,216.138,M,13.886,M,2.0,0031*41
[164506.00]
$GPGGA,174732.00,5540.4323361,N,03730.3259457,E,4,29,0.4,216.138,M,13.886,M,2.0,0031*4D
[164507.00]
$GPGGA,174733.00,5540.4323367,N,03730.3259467,E,4,29,0.4,216.140,M,13.886,M,2.0,0031*46
[164508.00]
$GPGGA,174734.00,5540.4323362,N,03730.3259474,E,4,29,0.4,216.142,M,13.886,M,2.0,0031*44
[164509.00]
$GPGGA,174735.00,5540.4323357,N,03730.3259473,E,4,29,0.4,216.139,M,13.886,M,2.0,0031*48
[164510.00]
$GPGGA,174736.00,5540.4323354,N,03730.3259477,E,4,29,0.4,216.134,M,13.886,M,1.0,0031*42
[164511.00]
$GPGGA,174737.00,5540.4323359,N,03730.3259477,E,4,29,0.4,216.142,M,13.886,M,1.0,0031*4F
[164512.00]
$GPGGA,174738.00,5540.4323361,N,03730.3259476,E,4,29,0.4,216.140,M,13.886,M,1.0,0031*48
[164513.00]
$GPGGA,174739.00,5540.4323361,N,03730.3259478,E,4,29,0.4,216.140,M,13.886,M,2.0,0031*44
[164514.00]
$GPGGA,174740.00,5540.4323362,N,03730.3259470,E,4,29,0.4,216.139,M,13.886,M,2.0,0031*4F
[164515.00]
$GPGGA,174741.00,5540.4323354,N,03730.3259470,E,4,29,0.4,216.139,M,13.886,M,1.0,0031*48
[164516.00]
$GPGGA,174742.00,5540.4323361,N,03730.3259462,E,4,29,0.4,216.139,M,13.886,M,1.0,0031*4E
[164517.00]
$GPGGA,174743.00,5540.4323364,N,03730.3259464,E,4,29,0.4,216.136,M,13.886,M,2.0,0031*40
[164518.00]
$GPGGA,174744.00,5540.4323361,N,03730.3259465,E,4,29,0.4,216.138,M,13.886,M,2.0,0031*4D
[164519.00]
$GPGGA,174745.00,5540.4323358,N,03730.3259472,E,4,29,0.4,216.141,M,13.886,M,2.0,0031*4E
[164520.00]
$GPGGA,174746.00,5540.4323361,N,03730.3259483,E,4,29,0.4,216.142,M,13.886,M,2.0,0031*4A
[164521.00]
$GPGGA,174747.00,5540.4323368,N,03730.3259482,E,4,29,0.4,216.143,M,13.886,M,2.0,0031*42
[164522.00]
$GPGGA,174748.00,5540.4323368,N,03730.3259482,E,4,29,0.4,216.141,M,13.886,M,2.0,0031*4F
[164523.00]
$GPGGA,174749.00,5540.4323357,N,03730.3259471,E,4,29,0.4,216.138,M,13.886,M,2.0,0031*40
[164524.00]
$GPGGA,174750.00,5540.4323358,N,03730.3259465,E,4,29,0.4,216.139,M,13.886,M,2.0,0031*43
[164525.00]
$GPGGA,174751.00,5540.4323354,N,03730.3259470,E,4,29,0.4,216.142,M,13.886,M,1.0,0031*45
[164526.00]
$GPGGA,174752.00,5540.4323355,N,03730.3259476,E,4,29,0.4,216.141,M,13.886,M,1.0,0031*42
[164527.00]
$GPGGA,174753.00,5540.4323353,N,03730.3259475,E,4,29,0.4,216.140,M,13.886,M,2.0,0031*44
[164528.00]
$GPGGA,174754.00,5540.4323351,N,03730.3259480,E,4,29,0.4,216.139,M,13.886,M,2.0,0031*45
[164529.00]
$GPGGA,174755.00,5540.4323349,N,03730.3259479,E,4,29,0.4,216.142,M,13.886,M,1.0,0031*44
[164530.00]
$GPGGA,174756.00,5540.4323355,N,03730.3259466,E,4,29,0.4,216.142,M,13.886,M,2.0,0031*47
[164531.00]
$GPGGA,174757.00,5540.4323366,N,03730.3259461,E,4,29,0.4,216.142,M,13.886,M,2.0,0031*41
[164532.00]
$GPGGA,174758.00,5540.4323363,N,03730.3259478,E,4,29,0.4,216.143,M,13.886,M,2.0,0031*42
[164533.00]
$GPGGA,174759.00,5540.4323360,N,03730.3259477,E,4,29,0.4,216.141,M,13.886,M,2.0,0031*4D
[164534.00]
$GPGGA,174800.00,5540.4323353,N,03730.3259470,E,4,29,0.4,216.141,M,13.886,M,2.0,0031*49
[164535.00]
$GPGGA,174801.00,5540.4323349,N,03730.3259461,E,4,29,0.4,216.141,M,13.886,M,2.0,0031*43
[164536.00]
$GPGGA,174802.00,5540.4323348,N,03730.3259458,E,4,29,0.4,216.141,M,13.886,M,2.0,0031*4B
[164537.00]
$GPGGA,174803.00,5540.4323351,N,03730.3259463,E,4,29,0.4,216.140,M,13.886,M,2.0,0031*4B
[164538.00]
$GPGGA,174804.00,5540.4323353,N,03730.3259475,E,4,29,0.4,216.146,M,13.886,M,1.0,0031*4C
[164539.00]
$GPGGA,174805.00,5540.4323355,N,03730.3259478,E,4,29,0.4,216.139,M,13.886,M,1.0,0031*4E
[164540.00]
$GPGGA,174806.00,5540.4323359,N,03730.3259486,E,4,29,0.4,216.143,M,13.886,M,1.0,0031*4D
[164541.00]
$GPGGA,174807.00,5540.4323362,N,03730.3259490,E,4,29,0.4,216.146,M,13.886,M,2.0,0031*45
[164542.00]
$GPGGA,174808.00,5540.4323360,N,03730.3259484,E,4,29,0.4,216.141,M,13.886,M,2.0,0031*4A
[164543.00]
$GPGGA,174809.00,5540.4323358,N,03730.3259489,E,4,29,0.4,216.141,M,13.886,M,2.0,0031*4D
[164544.00]
$GPGGA,174810.00,5540.4323355,N,03730.3259479,E,4,29,0.4,216.146,M,13.886,M,2.0,0031*40
[164545.00]
$GPGGA,174811.00,5540.4323359,N,03730.3259466,E,4,29,0.4,216.143,M,13.886,M,2.0,0031*46
[164546.00]
$GPGGA,174812.00,5540.4323356,N,03730.3259475,E,4,29,0.4,216.136,M,13.886,M,2.0,0031*4A
[164547.00]
$GPGGA,174813.00,5540.4323350,N,03730.3259492,E,4,29,0.4,216.136,M,13.886,M,2.0,0031*44
[164548.00]
$GPGGA,174814.00,5540.4323347,N,03730.3259501,E,4,29,0.4,216.141,M,13.886,M,2.0,0031*4E
[164549.00]
$GPGGA,174815.00,5540.4323358,N,03730.3259496,E,4,29,0.4,216.143,M,13.886,M,2.0,0031*4C
[164550.00]
$GPGGA,174816.00,5540.4323369,N,03730.3259492,E,4,29,0.4,216.143,M,13.886,M,2.0,0031*49
[164551.00]
$GPGGA,174817.00,5540.4323366,N,03730.3259482,E,4,29,0.4,216.143,M,13.886,M,2.0,0031*46
[164552.00]
$GPGGA,174818.00,5540.4323357,N,03730.3259480,E,4,29,0.4,216.145,M,13.886,M,1.0,0031*4C
[164553.00]
$GPGGA,174819.00,5540.4323350,N,03730.3259473,E,4,29,0.4,216.140,M,13.886,M,1.0,0031*43
[164554.00]
$GPGGA,174820.00,5540.4323358,N,03730.3259487,E,4,29,0.4,216.144,M,13.886,M,1.0,0031*4E
[164555.00]
$GPGGA,174821.00,5540.4323367,N,03730.3259482,E,4,29,0.4,216.141,M,13.886,M,2.0,0031*40
[164556.00]
$GPGGA,174822.00,5540.4323351,N,03730.3259477,E,4,29,0.4,216.142,M,13.886,M,1.0,0031*4C
[164557.00]
$GPGGA,174823.00,5540.4323348,N,03730.3259477,E,4,29,0.4,216.141,M,13.886,M,1.0,0031*46
[164558.00]
$GPGGA,174824.00,5540.4323351,N,03730.3259484,E,4,29,0.4,216.140,M,13.886,M,1.0,0031*44
[164559.00]
$GPGGA,174825.00,5540.4323349,N,03730.3259483,E,4,29,0.4,216.145,M,13.886,M,1.0,0031*4E
[164600.00]
$GPGGA,174826.00,5540.4323350,N,03730.3259484,E,4,29,0.4,216.141,M,13.886,M,1.0,0031*46
[164601.00]
$GPGGA,174827.00,5540.4323356,N,03730.3259492,E,4,29,0.4,216.141,M,13.886,M,1.0,0031*46
[164602.00]
$GPGGA,174828.00,5540.4323363,N,03730.3259495,E,4,29,0.4,216.141,M,13.886,M,2.0,0031*4B
[164603.00]
$GPGGA,174829.00,5540.4323353,N,03730.3259483,E,4,29,0.4,216.145,M,13.886,M,2.0,0031*4A
[164604.00]
$GPGGA,174830.00,5540.4323350,N,03730.3259476,E,4,29,0.4,216.140,M,13.886,M,1.0,0031*4D
[164605.00]
$GPGGA,174831.00,5540.4323347,N,03730.3259486,E,4,29,0.4,216.144,M,13.886,M,1.0,0031*41
[164606.00]
$GPGGA,174832.00,5540.4323347,N,03730.3259478,E,4,29,0.4,216.141,M,13.886,M,1.0,0031*46
[164607.00]
$GPGGA,174833.00,5540.4323345,N,03730.3259478,E,4,29,0.4,216.144,M,13.886,M,1.0,0031*40
[164608.00]
$GPGGA,174834.00,5540.4323345,N,03730.3259481,E,4,29,0.4,216.140,M,13.886,M,1.0,0031*45
[164609.00]
$GPGGA,174835.00,5540.4323348,N,03730.3259486,E,4,29,0.4,216.145,M,13.886,M,1.0,0031*4B
[164610.00]
$GPGGA,174836.00,5540.4323350,N,03730.3259481,E,4,29,0.4,216.144,M,13.886,M,1.0,0031*47
[164611.00]
$GPGGA,174837.00,5540.4323342,N,03730.3259479,E,4,29,0.4,216.142,M,13.886,M,1.0,0031*44
[164612.00]
$GPGGA,174838.00,5540.4323344,N,03730.3259486,E,4,29,0.4,216.142,M,13.886,M,1.0,0031*4D
[164613.00]
$GPGGA,174839.00,5540.4323339,N,03730.3259490,E,4,29,0.4,216.140,M,13.886,M,1.0,0031*43
[164614.00]
$GPGGA,174840.00,5540.4323336,N,03730.3259483,E,4,29,0.4,216.142,M,13.886,M,1.0,0031*42
[164615.00]
$GPGGA,174841.00,5540.4323338,N,03730.3259489,E,4,29,0.4,216.141,M,13.886,M,1.0,0031*44
[164616.00]
$GPGGA,174842.00,5540.4323337,N,03730.3259486,E,4,29,0.4,216.142,M,13.886,M,2.0,0031*47
[164617.00]
$GPGGA,174843.00,5540.4323331,N,03730.3259484,E,4,29,0.4,216.141,M,13.886,M,2.0,0031*41
[164618.00]
$GPGGA,174844.00,5540.4323333,N,03730.3259486,E,4,29,0.4,216.144,M,13.886,M,1.0,0031*40
[164619.00]
$GPGGA,174845.00,5540.4323334,N,03730.3259491,E,4,29,0.4,216.144,M,13.886,M,1.0,0031*40
[164620.00]
$GPGGA,174846.00,5540.4323335,N,03730.3259483,E,4,29,0.4,216.142,M,13.886,M,1.0,0031*47
[164621.00]
$GPGGA,174847.00,5540.4323337,N,03730.3259483,E,4,29,0.4,216.143,M,13.886,M,1.0,0031*45
[164622.00]
$GPGGA,174848.00,5540.4323336,N,03730.3259487,E,4,29,0.4,216.144,M,13.886,M,2.0,0031*4B
[164623.00]
$GPGGA,174849.00,5540.4323334,N,03730.3259498,E,4,29,0.4,216.144,M,13.886,M,1.0,0031*45
[164624.00]
$GPGGA,174850.00,5540.4323335,N,03730.3259495,E,4,29,0.4,216.143,M,13.886,M,1.0,0031*46
[164625.00]
$GPGGA,174851.00,5540.4323333,N,03730.3259492,E,4,29,0.4,216.145,M,13.886,M,1.0,0031*40
[164626.00]
$GPGGA,174852.00,5540.4323330,N,03730.3259501,E,4,29,0.4,216.145,M,13.886,M,1.0,0031*4B
[164627.00]
$GPGGA,174853.00,5540.4323335,N,03730.3259493,E,4,29,0.4,216.146,M,13.886,M,1.0,0031*46
[164628.00]
$GPGGA,174854.00,5540.4323334,N,03730.3259495,E,4,29,0.4,216.143,M,13.886,M,1.0,0031*43
[164629.00]
$GPGGA,174855.00,5540.4323330,N,03730.3259493,E,4,29,0.4,216.145,M,13.886,M,1.0,0031*46
[164630.00]
$GPGGA,174856.00,5540.4323330,N,03730.3259485,E,4,29,0.4,216.142,M,13.886,M,2.0,0031*46
[164631.00]
$GPGGA,174857.00,5540.4323328,N,03730.3259486,E,4,29,0.4,216.138,M,13.886,M,2.0,0031*40
[164632.00]
$GPGGA,174858.00,5540.4323334,N,03730.3259500,E,4,29,0.4,216.144,M,13.886,M,1.0,0031*45
[164633.00]
$GPGGA,174859.00,5540.4323334,N,03730.3259500,E,4,29,0.4,216.144,M,13.886,M,2.0,0031*47
[164634.00]
$GPGGA,174900.00,5540.4323330,N,03730.3259497,E,4,29,0.4,216.143,M,13.886,M,1.0,0031*45
[164635.00]
$GPGGA,174901.00,5540.4323326,N,03730.3259488,E,4,29,0.4,216.142,M,13.886,M,2.0,0031*4F
[164636.00]
$GPGGA,174902.00,5540.4323329,N,03730.3259480,E,4,29,0.4,216.145,M,13.886,M,2.0,0031*4C
[164637.00]
$GPGGA,174903.00,5540.4323328,N,03730.3259479,E,4,29,0.4,216.147,M,13.886,M,2.0,0031*48
[164638.00]
$GPGGA,174904.00,5540.4323329,N,03730.3259483,E,4,29,0.4,216.143,M,13.886,M,2.0,0031*4F
[164639.00]
$GPGGA,174905.00,5540.4323337,N,03730.3259502,E,4,29,0.4,216.143,M,13.886,M,2.0,0031*49
[164640.00]
$GPGGA,174906.00,5540.4323337,N,03730.3259517,E,4,29,0.4,216.144,M,13.886,M,2.0,0031*49
[164641.00]
$GPGGA,174907.00,5540.4323327,N,03730.3259517,E,4,29,0.4,216.143,M,13.886,M,2.0,0031*4E
[164642.00]
$GPGGA,174908.00,5540.4323319,N,03730.3259513,E,4,29,0.4,216.139,M,13.886,M,2.0,0031*45
[164643.00]
$GPGGA,174909.00,5540.4323339,N,03730.3259501,E,4,29,0.4,216.142,M,13.886,M,1.0,0031*4A
[164644.00]
[164644.00] ---PWR OFF---
[164645.00]
[164646.00]
[164647.00]
[164648.00]
[164649.00]
[164650.00]
[164651.00]
[164652.00]
[164653.00]
[164654.00]
[164655.00]
[164656.00]
[164657.00]
[164658.00]
[164659.00]
[164700.00] ---PWR ON---
[164700.00]
[164701.00]
$PASHR,PWR,ON*0C
[164702.00]
[164703.00]
[164704.00]
[164705.00]
[164706.00]
[164707.00]
[164708.00]
[164709.00]
[164710.00]
[164711.00]
[164712.00]
[164713.00]
[164714.00]
[164715.00]
[164716.00]
[164717.00]
[164718.00]
$GPGGA,,,,,,0,0,,,M,,M,,*56
$GPGGA,,,,,,0,0,,,M,,M,,*56
[164719.00]
$PMGNGO*1C
$GPGGA,,,,,,0,0,,,M,,M,,*56
[164720.00]
$GPGGA,,,,,,0,0,,,M,,M,,*56
[164721.00]
$GPGGA,,,,,,0,0,,,M,,M,,*56
[164722.00]
$GPGGA,,,,,,0,0,,,M,,M,,*56
[164723.00]
$GPGGA,,,,,,0,0,,,M,,M,,*56
[164724.00]
$GPGGA,174950.00,,,,,0,0,,,M,,M,,*76
[164725.00]
$GPGGA,174951.00,,,,,0,0,,,M,,M,,*77
[164726.00]
$GPGGA,174952.00,5540.4327083,N,03730.3269935,E,1,15,1.3,212.942,M,13.886,M,,*67
[164727.00]
$GPGGA,174953.00,5540.4324672,N,03730.3266757,E,2,16,1.3,212.124,M,13.886,M,1.8,0031*45
[164728.00]
$GPGGA,174954.00,5540.4324595,N,03730.3266649,E,2,17,1.2,212.118,M,13.886,M,1.8,0031*49
[164729.00]
$GPGGA,174955.00,5540.4324591,N,03730.3266590,E,2,27,0.5,212.140,M,13.886,M,1.8,0031*43
[164730.00]
$GPGGA,174956.00,5540.4332104,N,03730.3259796,E,2,27,0.5,215.062,M,13.886,M,1.8,0031*41
[164731.00]
$GPGGA,174957.00,5540.4331619,N,03730.3259514,E,2,27,0.5,215.221,M,13.886,M,1.8,0031*45
[164732.00]
$GPGGA,174958.00,5540.4319965,N,03730.3260512,E,5,10,0.5,214.535,M,13.886,M,2.0,0031*43
[164733.00]
$GPGGA,174959.00,5540.4321625,N,03730.3259472,E,5,12,0.5,214.803,M,13.886,M,2.0,0031*45
[164734.00]
$GPGGA,175000.00,5540.4324668,N,03730.3258380,E,5,13,0.5,215.326,M,13.886,M,2.0,0031*4A
[164735.00]
$GPGGA,175001.00,5540.4326070,N,03730.3258124,E,5,18,0.5,215.862,M,13.886,M,2.0,0031*4A
[164736.00]
$GPGGA,175002.00,5540.4323384,N,03730.3259472,E,4,19,0.5,216.149,M,13.886,M,1.0,0031*43
[164737.00]
$GPGGA,175003.00,5540.4323383,N,03730.3259454,E,4,21,0.4,216.153,M,13.886,M,1.0,0031*40
[164738.00]
$GPGGA,175004.00,5540.4323348,N,03730.3259458,E,4,22,0.4,216.141,M,13.886,M,1.0,0031*4C
[164739.00]
$GPGGA,175005.00,5540.4323353,N,03730.3259454,E,4,27,0.4,216.144,M,13.886,M,1.0,0031*4B
[164740.00]
$GPGGA,175006.00,5540.4323309,N,03730.3259465,E,4,28,0.4,216.143,M,13.886,M,1.0,0031*4D
[164741.00]
$GPGGA,175007.00,5540.4323314,N,03730.3259458,E,4,28,0.4,216.142,M,13.886,M,1.0,0031*4F
[164742.00]
$GPGGA,175008.00,5540.4323305,N,03730.3259459,E,4,28,0.4,216.141,M,13.886,M,1.0,0031*42
[164743.00]
$GPGGA,175009.00,5540.4323304,N,03730.3259472,E,4,28,0.4,216.147,M,13.886,M,1.0,0031*4D
[164744.00]
$GPGGA,175010.00,5540.4323297,N,03730.3259467,E,4,29,0.4,216.142,M,13.886,M,1.0,0031*4E
[164745.00]
$GPGGA,175011.00,5540.4323297,N,03730.3259465,E,4,29,0.4,216.142,M,13.886,M,1.0,0031*4D
[164746.00]
$GPGGA,175012.00,5540.4323284,N,03730.3259467,E,4,29,0.4,216.142,M,13.886,M,1.0,0031*4E
[164747.00]
$GPGGA,175013.00,5540.4323280,N,03730.3259457,E,4,29,0.4,216.139,M,13.886,M,2.0,0031*47
[164748.00]
$GPGGA,175014.00,5540.4323284,N,03730.3259450,E,4,29,0.4,216.142,M,13.886,M,2.0,0031*4F
[164749.00]
$GPGGA,175015.00,5540.4323287,N,03730.3259464,E,4,29,0.4,216.143,M,13.886,M,1.0,0031*48
[164750.00]
$GPGGA,175016.00,5540.4323289,N,03730.3259457,E,4,29,0.4,216.140,M,13.886,M,1.0,0031*46
[164751.00]
$GPGGA,175017.00,5540.4323298,N,03730.3259461,E,4,29,0.4,216.142,M,13.886,M,1.0,0031*40
[164752.00]
$GPGGA,175018.00,5540.4323290,N,03730.3259473,E,4,29,0.4,216.142,M,13.886,M,1.0,0031*44
[164753.00]
$GPGGA,175019.00,5540.4323286,N,03730.3259466,E,4,29,0.4,216.141,M,13.886,M,2.0,0031*46
[164754.00]
$GPGGA,175020.00,5540.4323292,N,03730.3259471,E,4,29,0.4,216.142,M,13.886,M,1.0,0031*4F
[164755.00]
$GPGGA,175021.00,5540.4323297,N,03730.3259475,E,4,29,0.4,216.142,M,13.886,M,1.0,0031*4F
[164756.00]
$GPGGA,175022.00,5540.4323292,N,03730.3259483,E,4,29,0.4,216.146,M,13.886,M,1.0,0031*44
[164757.00]
$GPGGA,175023.00,5540.4323290,N,03730.3259480,E,4,29,0.4,216.145,M,13.886,M,1.0,0031*47
[164758.00]
$GPGGA,175024.00,5540.4323290,N,03730.3259477,E,4,29,0.4,216.143,M,13.886,M,1.0,0031*4E
[164759.00]
$GPGGA,175025.00,5540.4323287,N,03730.3259481,E,4,29,0.4,216.144,M,13.886,M,1.0,0031*47
[164800.00]
$GPGGA,175026.00,5540.4323294,N,03730.3259477,E,4,29,0.4,216.146,M,13.886,M,1.0,0031*4D
[164801.00]
$GPGGA,175027.00,5540.4323295,N,03730.3259484,E,4,29,0.4,216.146,M,13.886,M,2.0,0031*42
[164802.00]
$GPGGA,175028.00,5540.4323294,N,03730.3259482,E,4,29,0.4,216.145,M,13.886,M,1.0,0031*4A
[164803.00]
$GPGGA,175029.00,5540.4323289,N,03730.3259476,E,4,29,0.4,216.143,M,13.886,M,1.0,0031*4A
[164804.00]
$GPGGA,175030.00,5540.4323298,N,03730.3259485,E,4,29,0.4,216.149,M,13.886,M,1.0,0031*44
[164805.00]
$GPGGA,175031.00,5540.4323299,N,03730.3259480,E,4,29,0.4,216.144,M,13.886,M,1.0,0031*4C
[164806.00]
$GPGGA,175032.00,5540.4323299,N,03730.3259475,E,4,29,0.4,216.142,M,13.886,M,2.0,0031*40
[164807.00]
$GPGGA,175033.00,5540.4323300,N,03730.3259473,E,4,29,0.4,216.143,M,13.886,M,2.0,0031*47
[164808.00]
$GPGGA,175034.00,5540.4323302,N,03730.3259467,E,4,29,0.4,216.146,M,13.886,M,2.0,0031*42
[164809.00]
$GPGGA,175035.00,5540.4323302,N,03730.3259471,E,4,29,0.4,216.149,M,13.886,M,1.0,0031*48
[164810.00]
$GPGGA,175036.00,5540.4323300,N,03730.3259474,E,4,29,0.4,216.147,M,13.886,M,1.0,0031*42
[164811.00]
$GPGGA,175037.00,5540.4323301,N,03730.3259475,E,4,29,0.4,216.148,M,13.886,M,1.0,0031*4C
[164812.00]
$GPGGA,175038.00,5540.4323292,N,03730.3259471,E,4,29,0.4,216.147,M,13.886,M,1.0,0031*43
[164813.00]
$GPGGA,175039.00,5540.4323298,N,03730.3259466,E,4,29,0.4,216.145,M,13.886,M,1.0,0031*4C
[164814.00]
$GPGGA,175040.00,5540.4323300,N,03730.3259461,E,4,29,0.4,216.144,M,13.886,M,1.0,0031*44
[164815.00]
$GPGGA,175041.00,5540.4323304,N,03730.3259452,E,4,29,0.4,216.147,M,13.886,M,2.0,0031*41
[164816.00]
$GPGGA,175042.00,5540.4323304,N,03730.3259465,E,4,29,0.4,216.146,M,13.886,M,1.0,0031*44
[164817.00]
$GPGGA,175043.00,5540.4323308,N,03730.3259470,E,4,29,0.4,216.146,M,13.886,M,1.0,0031*4D
[164818.00]
$GPGGA,175044.00,5540.4323303,N,03730.3259456,E,4,29,0.4,216.145,M,13.886,M,1.0,0031*46
[164819.00]
$GPGGA,175045.00,5540.4323305,N,03730.3259453,E,4,29,0.4,216.145,M,13.886,M,2.0,0031*47
[164820.00]
$GPGGA,175046.00,5540.4323301,N,03730.3259470,E,4,29,0.4,216.142,M,13.886,M,2.0,0031*46
[164821.00]
$GPGGA,175047.00,5540.4323301,N,03730.3259473,E,4,29,0.4,216.144,M,13.886,M,1.0,0031*41
[164822.00]
$GPGGA,175048.00,5540.4323305,N,03730.3259468,E,4,29,0.4,216.144,M,13.886,M,2.0,0031*43
[164823.00]
$GPGGA,175049.00,5540.4323308,N,03730.3259475,E,4,29,0.4,216.140,M,13.886,M,1.0,0031*44
[164824.00]
$GPGGA,175050.00,5540.4323308,N,03730.3259484,E,4,29,0.4,216.141,M,13.886,M,1.0,0031*43
[164825.00]
$GPGGA,175051.00,5540.4323314,N,03730.3259481,E,4,29,0.4,216.145,M,13.886,M,1.0,0031*4E
[164826.00]
$GPGGA,175052.00,5540.4323311,N,03730.3259475,E,4,29,0.4,216.141,M,13.886,M,1.0,0031*47
[164827.00]
$GPGGA,175053.00,5540.4323311,N,03730.3259481,E,4,29,0.4,216.142,M,13.886,M,1.0,0031*4E
[164828.00]
$GPGGA,175054.00,5540.4323314,N,03730.3259486,E,4,29,0.4,216.141,M,13.886,M,1.0,0031*48
[164829.00]
$GPGGA,175055.00,5540.4323313,N,03730.3259492,E,4,29,0.4,216.144,M,13.886,M,2.0,0031*4D
[164830.00]
$GPGGA,175056.00,5540.4323301,N,03730.3259484,E,4,29,0.4,216.140,M,13.886,M,1.0,0031*4D
[164831.00]
$GPGGA,175057.00,5540.4323305,N,03730.3259478,E,4,29,0.4,216.143,M,13.886,M,1.0,0031*48
[164832.00]
$GPGGA,175058.00,5540.4323309,N,03730.3259470,E,4,29,0.4,216.143,M,13.886,M,2.0,0031*40
[164833.00]
$GPGGA,175059.00,5540.4323319,N,03730.3259468,E,4,29,0.4,216.141,M,13.886,M,2.0,0031*4B
[164834.00]
$GPGGA,175100.00,5540.4323317,N,03730.3259494,E,4,29,0.4,216.141,M,13.886,M,1.0,0031*48
[164835.00]
$GPGGA,175101.00,5540.4323309,N,03730.3259495,E,4,29,0.4,216.142,M,13.886,M,1.0,0031*44
[164836.00]
$GPGGA,175102.00,5540.4323310,N,03730.3259497,E,4,29,0.4,216.140,M,13.886,M,2.0,0031*4C
[164837.00]
$GPGGA,175103.00,5540.4323321,N,03730.3259502,E,4,29,0.4,216.144,M,13.886,M,1.0,0031*45
[164838.00]
$GPGGA,175104.00,5540.4323315,N,03730.3259496,E,4,29,0.4,216.140,M,13.886,M,1.0,0031*4D
[164839.00]
$GPGGA,175105.00,5540.4323320,N,03730.3259494,E,4,29,0.4,216.143,M,13.886,M,1.0,0031*4B
[164840.00]
$GPGGA,175106.00,5540.4323319,N,03730.3259495,E,4,29,0.4,216.140,M,13.886,M,1.0,0031*40
[164841.00]
$GPGGA,175107.00,5540.4323311,N,03730.3259493,E,4,29,0.4,216.140,M,13.886,M,1.0,0031*4F
[164842.00]
$GPGGA,175108.00,5540.4323319,N,03730.3259495,E,4,29,0.4,216.140,M,13.886,M,1.0,0031*4E
[164843.00]
$GPGGA,175109.00,5540.4323323,N,03730.3259492,E,4,29,0.4,216.139,M,13.886,M,2.0,0031*4C
[164844.00]
$GPGGA,175110.00,5540.4323320,N,03730.3259496,E,4,29,0.4,216.145,M,13.886,M,1.0,0031*4B
[164845.00]
$GPGGA,175111.00,5540.4323321,N,03730.3259495,E,4,29,0.4,216.147,M,13.886,M,2.0,0031*49
[164846.00]
$GPGGA,175112.00,5540.4323320,N,03730.3259487,E,4,29,0.4,216.142,M,13.886,M,2.0,0031*4D
[164847.00]
$GPGGA,175113.00,5540.4323316,N,03730.3259493,E,4,29,0.4,216.142,M,13.886,M,1.0,0031*4F
[164848.00]
$GPGGA,175114.00,5540.4323323,N,03730.3259483,E,4,29,0.4,216.143,M,13.886,M,1.0,0031*4E
[164849.00]
$GPGGA,175115.00,5540.4323317,N,03730.3259482,E,4,29,0.4,216.141,M,13.886,M,1.0,0031*4B
[164850.00]
$GPGGA,175116.00,5540.4323321,N,03730.3259469,E,4,29,0.4,216.142,M,13.886,M,2.0,0031*48
[164851.00]
$GPGGA,175117.00,5540.4323321,N,03730.3259478,E,4,29,0.4,216.148,M,13.886,M,2.0,0031*43
[164852.00]
$GPGGA,175118.00,5540.4323313,N,03730.3259488,E,4,29,0.4,216.141,M,13.886,M,1.0,0031*48
[164853.00]
$GPGGA,175119.00,5540.4323315,N,03730.3259484,E,4,29,0.4,216.145,M,13.886,M,1.0,0031*47
[164854.00]
$GPGGA,175120.00,5540.4323310,N,03730.3259482,E,4,29,0.4,216.147,M,13.886,M,1.0,0031*4C
[164855.00]
$GPGGA,175121.00,5540.4323302,N,03730.3259485,E,4,29,0.4,216.146,M,13.886,M,1.0,0031*48
[164856.00]
$GPGGA,175122.00,5540.4323310,N,03730.3259477,E,4,29,0.4,216.144,M,13.886,M,1.0,0031*47
[164857.00]
$GPGGA,175123.00,5540.4323308,N,03730.3259470,E,4,29,0.4,216.143,M,13.886,M,2.0,0031*4C
[164858.00]
$GPGGA,175124.00,5540.4323311,N,03730.3259480,E,4,29,0.4,216.149,M,13.886,M,1.0,0031*45
[164859.00]
$GPGGA,175125.00,5540.4323305,N,03730.3259468,E,4,29,0.4,216.145,M,13.886,M,1.0,0031*4B
[164900.00]
$GPGGA,175126.00,5540.4323307,N,03730.3259477,E,4,29,0.4,216.144,M,13.886,M,1.0,0031*45
[164901.00]
$GPGGA,175127.00,5540.4323306,N,03730.3259473,E,4,29,0.4,216.145,M,13.886,M,1.0,0031*40
[164902.00]
$GPGGA,175128.00,5540.4323300,N,03730.3259478,E,4,29,0.4,216.147,M,13.886,M,1.0,0031*40
[164903.00]
$GPGGA,175129.00,5540.4323298,N,03730.3259485,E,4,29,0.4,216.149,M,13.886,M,1.0,0031*4D
[164904.00]
$GPGGA,175130.00,5540.4323296,N,03730.3259495,E,4,29,0.4,216.152,M,13.886,M,2.0,0031*43
[164905.00]
$GPGGA,175131.00,5540.4323297,N,03730.3259491,E,4,29,0.4,216.146,M,13.886,M,2.0,0031*42
[164906.00]
$GPGGA,175132.00,5540.4323300,N,03730.3259480,E,4,29,0.4,216.145,M,13.886,M,1.0,0031*4E
[164907.00]
$GPGGA,175133.00,5540.4323299,N,03730.3259484,E,4,29,0.4,216.148,M,13.886,M,1.0,0031*47
[164908.00]
$GPGGA,175134.00,5540.4323297,N,03730.3259476,E,4,29,0.4,216.147,M,13.886,M,1.0,0031*4C
[164909.00]
$GPGGA,175135.00,5540.4323300,N,03730.3259470,E,4,29,0.4,216.146,M,13.886,M,1.0,0031*45
[164910.00]
$GPGGA,175136.00,5540.4323306,N,03730.3259476,E,4,29,0.4,216.145,M,13.886,M,1.0,0031*45
[164911.00]
$GPGGA,175137.00,5540.4323310,N,03730.3259485,E,4,29,0.4,216.148,M,13.886,M,1.0,0031*42
[164912.00]
$GPGGA,175138.00,5540.4323306,N,03730.3259481,E,4,29,0.4,216.149,M,13.886,M,1.0,0031*4F
[164913.00]
$GPGGA,175139.00,5540.4323297,N,03730.3259482,E,4,29,0.4,216.146,M,13.886,M,1.0,0031*4B
[164914.00]
$GPGGA,175140.00,5540.4323296,N,03730.3259468,E,4,29,0.4,216.147,M,13.886,M,1.0,0031*41
[164915.00]
$GPGGA,175141.00,5540.4323294,N,03730.3259484,E,4,29,0.4,216.149,M,13.886,M,1.0,0031*4E
[164916.00]
$GPGGA,175142.00,5540.4323299,N,03730.3259477,E,4,29,0.4,216.148,M,13.886,M,1.0,0031*4D
[164917.00]
$GPGGA,175143.00,5540.4323293,N,03730.3259484,E,4,29,0.4,216.147,M,13.886,M,1.0,0031*45
[164918.00]
$GPGGA,175144.00,5540.4323285,N,03730.3259472,E,4,29,0.4,216.148,M,13.886,M,2.0,0031*40
[164919.00]
$GPGGA,175145.00,5540.4323290,N,03730.3259468,E,4,29,0.4,216.150,M,13.886,M,2.0,0031*47
[164920.00]
$GPGGA,175146.00,5540.4323299,N,03730.3259476,E,4,29,0.4,216.142,M,13.886,M,1.0,0031*42
[164921.00]
$GPGGA,175147.00,5540.4323297,N,03730.3259478,E,4,29,0.4,216.145,M,13.886,M,1.0,0031*44
[164922.00]
$GPGGA,175148.00,5540.4323309,N,03730.3259482,E,4,29,0.4,216.143,M,13.886,M,1.0,0031*4E
[164923.00]
$GPGGA,175149.00,5540.4323301,N,03730.3259478,E,4,29,0.4,216.145,M,13.886,M,1.0,0031*44
[164924.00]
$GPGGA,175150.00,5540.4323297,N,03730.3259468,E,4,29,0.4,216.146,M,13.886,M,2.0,0031*43
[164925.00]
$GPGGA,175151.00,5540.4323295,N,03730.3259472,E,4,29,0.4,216.141,M,13.886,M,1.0,0031*4F
[164926.00]
$GPGGA,175152.00,5540.4323297,N,03730.3259481,E,4,29,0.4,216.142,M,13.886,M,1.0,0031*41
[164927.00]
$GPGGA,175153.00,5540.4323291,N,03730.3259485,E,4,29,0.4,216.139,M,13.886,M,1.0,0031*4E
[164928.00]
$GPGGA,175154.00,5540.4323285,N,03730.3259497,E,4,29,0.4,216.138,M,13.886,M,1.0,0031*4E
[164929.00]
$GPGGA,175155.00,5540.4323287,N,03730.3259487,E,4,29,0.4,216.139,M,13.886,M,1.0,0031*4D
[164930.00]
$GPGGA,175156.00,5540.4323297,N,03730.3259484,E,4,29,0.4,216.136,M,13.886,M,1.0,0031*43
[164931.00]
$GPGGA,175157.00,5540.4323298,N,03730.3259480,E,4,29,0.4,216.141,M,13.886,M,1.0,0031*49
[164932.00]
$GPGGA,175158.00,5540.4323296,N,03730.3259483,E,4,29,0.4,216.142,M,13.886,M,2.0,0031*4B
[164933.00]
$GPGGA,175159.00,5540.4323288,N,03730.3259474,E,4,29,0.4,216.139,M,13.886,M,2.0,0031*41
[164934.00]
$GPGGA,175200.00,5540.4323297,N,03730.3259469,E,4,29,0.4,216.141,M,13.886,M,1.0,0031*40
[164935.00]
$GPGGA,175201.00,5540.4323291,N,03730.3259472,E,4,29,0.4,216.138,M,13.886,M,1.0,0031*43
[164936.00]
$GPGGA,175202.00,5540.4323283,N,03730.3259462,E,4,29,0.4,216.140,M,13.886,M,1.0,0031*4D
[164937.00]
$GPGGA,175203.00,5540.4323274,N,03730.3259458,E,4,29,0.4,216.140,M,13.886,M,2.0,0031*4E
[164938.00]
$GPGGA,175204.00,5540.4323282,N,03730.3259466,E,4,29,0.4,216.139,M,13.886,M,2.0,0031*43
[164939.00]
$GPGGA,175205.00,5540.4323275,N,03730.3259472,E,4,29,0.4,216.139,M,13.886,M,2.0,0031*4F
[164940.00]
$GPGGA,175206.00,5540.4323290,N,03730.3259471,E,4,29,0.4,216.141,M,13.886,M,2.0,0031*4B
[164941.00]
$GPGGA,175207.00,5540.4323295,N,03730.3259463,E,4,29,0.4,216.142,M,13.886,M,2.0,0031*4F
[164942.00]
$GPGGA,175208.00,5540.4323286,N,03730.3259456,E,4,29,0.4,216.142,M,13.886,M,2.0,0031*44
[164943.00]
$GPGGA,175209.00,5540.4323285,N,03730.3259458,E,4,29,0.4,216.138,M,13.886,M,2.0,0031*45
[164944.00]
$GPGGA,175210.00,5540.4323290,N,03730.3259478,E,4,29,0.4,216.140,M,13.886,M,1.0,0031*47
[164945.00]
$GPGGA,175211.00,5540.4323291,N,03730.3259474,E,4,29,0.4,216.141,M,13.886,M,1.0,0031*4A
[164946.00]
$GPGGA,175212.00,5540.4323288,N,03730.3259472,E,4,29,0.4,216.143,M,13.886,M,2.0,0031*46
[164947.00]
$GPGGA,175213.00,5540.4323287,N,03730.3259474,E,4,29,0.4,216.142,M,13.886,M,1.0,0031*4C
[164948.00]
$GPGGA,175214.00,5540.4323292,N,03730.3259478,E,4,29,0.4,216.141,M,13.886,M,1.0,0031*40
[164949.00]
$GPGGA,175215.00,5540.4323295,N,03730.3259487,E,4,29,0.4,216.142,M,13.886,M,1.0,0031*45
[164950.00]
$GPGGA,175216.00,5540.4323290,N,03730.3259492,E,4,29,0.4,216.144,M,13.886,M,2.0,0031*42
[164951.00]
$GPGGA,175217.00,5540.4323290,N,03730.3259474,E,4,29,0.4,216.138,M,13.886,M,2.0,0031*40
[164952.00]
$GPGGA,175218.00,5540.4323290,N,03730.3259464,E,4,29,0.4,216.138,M,13.886,M,1.0,0031*4D
[164953.00]
$GPGGA,175219.00,5540.4323293,N,03730.3259450,E,4,29,0.4,216.138,M,13.886,M,2.0,0031*4B
[164954.00]
$GPGGA,175220.00,5540.4323297,N,03730.3259459,E,4,29,0.4,216.141,M,13.886,M,1.0,0031*41
[164955.00]
$GPGGA,175221.00,5540.4323308,N,03730.3259461,E,4,29,0.4,216.140,M,13.886,M,1.0,0031*4D
[164956.00]
$GPGGA,175222.00,5540.4323298,N,03730.3259464,E,4,29,0.4,216.143,M,13.886,M,1.0,0031*40
[164957.00]
$GPGGA,175223.00,5540.4323306,N,03730.3259480,E,4,29,0.4,216.136,M,13.886,M,1.0,0031*4F
[164958.00]
$GPGGA,175224.00,5540.4323304,N,03730.3259487,E,4,29,0.4,216.140,M,13.886,M,1.0,0031*4C
[164959.00]
$GPGGA,175225.00,5540.4323305,N,03730.3259481,E,4,29,0.4,216.138,M,13.886,M,1.0,0031*45
[165000.00]
$GPGGA,175226.00,5540.4323308,N,03730.3259490,E,4,29,0.4,216.136,M,13.886,M,2.0,0031*46
[165001.00]
[165001.00] ---PWR OFF---
[165002.00]
[165003.00]
[165004.00]
[165005.00]
[165006.00]
[165007.00]
[165008.00]
[165009.00]
[165010.00]
[165011.00]
[165012.00]
[165013.00]
[165014.00]
[165015.00]
[165016.00]
[165017.00] ---PWR ON---
[165017.00]
[165018.00]
$PASHR,PWR,ON*0C
[165019.00]
[165020.00]
[165021.00]
[165022.00]
[165023.00]
[165024.00]
[165025.00]
[165026.00]
[165027.00]
[165028.00]
[165029.00]
[165030.00]
[165031.00]
[165032.00]
[165033.00]
[165034.00]
[165035.00]
$GPGGA,,,,,,0,0,,,M,,M,,*56
$GPGGA,,,,,,0,0,,,M,,M,,*56
[165036.00]
$PMGNGO*1C
$GPGGA,,,,,,0,0,,,M,,M,,*56
[165037.00]
$GPGGA,,,,,,0,0,,,M,,M,,*56
[165038.00]
$GPGGA,175304.00,,,,,0,0,,,M,,M,,*7C
[165039.00]
$GPGGA,175305.00,,,,,0,0,,,M,,M,,*7D
[165040.00]
$GPGGA,175306.00,5540.4335941,N,03730.3259649,E,1,9,2.4,217.505,M,13.886,M,,*5D
[165041.00]
$GPGGA,175307.00,5540.4332664,N,03730.3261353,E,1,11,1.9,215.850,M,13.886,M,,*6E
[165042.00]
$GPGGA,175308.00,5540.4332797,N,03730.3261039,E,1,13,1.3,215.761,M,13.886,M,,*66
[165043.00]
$GPGGA,175309.00,5540.4332797,N,03730.3260221,E,2,25,0.5,216.024,M,13.886,M,1.8,0031*4C
[165044.00]
$GPGGA,175310.00,5540.4326018,N,03730.3258925,E,2,29,0.5,214.398,M,13.886,M,1.8,0031*4F
[165045.00]
$GPGGA,175311.00,5540.4324893,N,03730.3258728,E,2,29,0.5,213.960,M,13.886,M,0.8,0031*4F
[165046.00]
$GPGGA,175312.00,5540.4324288,N,03730.3258801,E,2,29,0.5,213.783,M,13.886,M,0.8,0031*4B
[165047.00]
$GPGGA,175313.00,5540.4325107,N,03730.3258231,E,2,29,0.5,213.957,M,13.886,M,0.8,0031*41
[165048.00]
$GPGGA,175314.00,5540.4323341,N,03730.3259436,E,4,17,0.5,216.140,M,13.886,M,1.0,0031*49
[165049.00]
$GPGGA,175315.00,5540.4323344,N,03730.3259432,E,4,17,0.5,216.141,M,13.886,M,2.0,0031*4B
[165050.00]
$GPGGA,175316.00,5540.4323349,N,03730.3259444,E,4,20,0.5,216.137,M,13.886,M,1.0,0031*42
[165051.00]
$GPGGA,175317.00,5540.4323339,N,03730.3259440,E,4,20,0.5,216.137,M,13.886,M,1.0,0031*40
[165052.00]
$GPGGA,175318.00,5540.4323331,N,03730.3259445,E,4,20,0.5,216.134,M,13.886,M,1.0,0031*41
[165053.00]
$GPGGA,175319.00,5540.4323348,N,03730.3259438,E,4,22,0.5,216.133,M,13.886,M,1.0,0031*41
[165054.00]
$GPGGA,175320.00,5540.4323341,N,03730.3259442,E,4,22,0.5,216.138,M,13.886,M,1.0,0031*44
[165055.00]
$GPGGA,175321.00,5540.4323352,N,03730.3259434,E,4,22,0.5,216.135,M,13.886,M,2.0,0031*48
[165056.00]
$GPGGA,175322.00,5540.4323349,N,03730.3259437,E,4,22,0.5,216.135,M,13.886,M,2.0,0031*42
[165057.00]
$GPGGA,175323.00,5540.4323345,N,03730.3259442,E,4,22,0.5,216.138,M,13.886,M,2.0,0031*40
[165058.00]
$GPGGA,175324.00,5540.4323345,N,03730.3259434,E,4,22,0.5,216.136,M,13.886,M,1.0,0031*4B
[165059.00]
$GPGGA,175325.00,5540.4323334,N,03730.3259434,E,4,22,0.5,216.135,M,13.886,M,1.0,0031*4F
[165100.00]
$GPGGA,175326.00,5540.4323340,N,03730.3259445,E,4,22,0.5,216.134,M,13.886,M,1.0,0031*48
[165101.00]
$GPGGA,175327.00,5540.4323333,N,03730.3259454,E,4,22,0.5,216.135,M,13.886,M,1.0,0031*4C
[165102.00]
$GPGGA,175328.00,5540.4323332,N,03730.3259454,E,4,22,0.5,216.133,M,13.886,M,1.0,0031*44
[165103.00]
$GPGGA,175329.00,5540.4323335,N,03730.3259450,E,4,22,0.5,216.134,M,13.886,M,2.0,0031*42
[165104.00]
$GPGGA,175330.00,5540.4323332,N,03730.3259448,E,4,22,0.5,216.129,M,13.886,M,1.0,0031*4B
[165105.00]
$GPGGA,175331.00,5540.4323333,N,03730.3259460,E,4,22,0.5,216.137,M,13.886,M,1.0,0031*4E
[165106.00]
$GPGGA,175332.00,5540.4323336,N,03730.3259452,E,4,22,0.5,216.132,M,13.886,M,1.0,0031*4C
[165107.00]
$GPGGA,175333.00,5540.4323337,N,03730.3259456,E,4,22,0.4,216.131,M,13.886,M,1.0,0031*4A
[165108.00]
$GPGGA,175334.00,5540.4323340,N,03730.3259445,E,4,22,0.4,216.128,M,13.886,M,2.0,0031*44
[165109.00]
$GPGGA,175335.00,5540.4323340,N,03730.3259437,E,4,22,0.4,216.129,M,13.886,M,2.0,0031*41
[165110.00]
$GPGGA,175336.00,5540.4323333,N,03730.3259441,E,4,27,0.4,216.132,M,13.886,M,2.0,0031*48
[165111.00]
$GPGGA,175337.00,5540.4323322,N,03730.3259448,E,4,28,0.4,216.132,M,13.886,M,1.0,0031*4C
[165112.00]
$GPGGA,175338.00,5540.4323314,N,03730.3259463,E,4,28,0.4,216.136,M,13.886,M,1.0,0031*4B
[165113.00]
$GPGGA,175339.00,5540.4323315,N,03730.3259460,E,4,28,0.4,216.137,M,13.886,M,1.0,0031*49
[165114.00]
$GPGGA,175340.00,5540.4323311,N,03730.3259460,E,4,29,0.4,216.135,M,13.886,M,1.0,0031*40
[165115.00]
$GPGGA,175341.00,5540.4323312,N,03730.3259456,E,4,29,0.4,216.135,M,13.886,M,1.0,0031*47
[165116.00]
$GPGGA,175342.00,5540.4323308,N,03730.3259466,E,4,29,0.4,216.137,M,13.886,M,1.0,0031*4E
[165117.00]
$GPGGA,175343.00,5540.4323301,N,03730.3259457,E,4,29,0.4,216.136,M,13.886,M,2.0,0031*46
[165118.00]
$GPGGA,175344.00,5540.4323306,N,03730.3259453,E,4,29,0.4,216.137,M,13.886,M,1.0,0031*40
[165119.00]
$GPGGA,175345.00,5540.4323309,N,03730.3259441,E,4,29,0.4,216.136,M,13.886,M,1.0,0031*4C
[165120.00]
$GPGGA,175346.00,5540.4323303,N,03730.3259446,E,4,29,0.4,216.136,M,13.886,M,1.0,0031*42
[165121.00]
$GPGGA,175347.00,5540.4323306,N,03730.3259445,E,4,29,0.4,216.137,M,13.886,M,2.0,0031*47
[165122.00]
$GPGGA,175348.00,5540.4323316,N,03730.3259462,E,4,29,0.4,216.136,M,13.886,M,2.0,0031*4D
[165123.00]
$GPGGA,175349.00,5540.4323311,N,03730.3259466,E,4,29,0.4,216.138,M,13.886,M,1.0,0031*42
[165124.00]
$GPGGA,175350.00,5540.4323314,N,03730.3259462,E,4,29,0.4,216.137,M,13.886,M,2.0,0031*47
[165125.00]
$GPGGA,175351.00,5540.4323311,N,03730.3259455,E,4,29,0.4,216.134,M,13.886,M,2.0,0031*44
[165126.00]
$GPGGA,175352.00,5540.4323302,N,03730.3259455,E,4,29,0.4,216.133,M,13.886,M,2.0,0031*42
[165127.00]
$GPGGA,175353.00,5540.4323300,N,03730.3259458,E,4,29,0.4,216.135,M,13.886,M,2.0,0031*4A
[165128.00]
$GPGGA,175354.00,5540.4323303,N,03730.3259454,E,4,29,0.4,216.134,M,13.886,M,1.0,0031*40
[165129.00]
$GPGGA,175355.00,5540.4323297,N,03730.3259450,E,4,29,0.4,216.134,M,13.886,M,2.0,0031*4A
[165130.00]
$GPGGA,175356.00,5540.4323302,N,03730.3259461,E,4,29,0.4,216.132,M,13.886,M,2.0,0031*40
[165131.00]
$GPGGA,175357.00,5540.4323303,N,03730.3259468,E,4,29,0.4,216.134,M,13.886,M,2.0,0031*4F
[165132.00]
$GPGGA,175358.00,5540.4323299,N,03730.3259460,E,4,29,0.4,216.138,M,13.886,M,2.0,0031*46
[165133.00]
$GPGGA,175359.00,5540.4323304,N,03730.3259456,E,4,29,0.4,216.140,M,13.886,M,2.0,0031*48
[165134.00]
$GPGGA,175400.00,5540.4323305,N,03730.3259459,E,4,29,0.4,216.137,M,13.886,M,2.0,0031*4D
[165135.00]
$GPGGA,175401.00,5540.4323299,N,03730.3259459,E,4,29,0.4,216.134,M,13.886,M,1.0,0031*48
[165136.00]
$GPGGA,175402.00,5540.4323301,N,03730.3259456,E,4,29,0.4,216.135,M,13.886,M,2.0,0031*46
[165137.00]
$GPGGA,175403.00,5540.4323304,N,03730.3259461,E,4,29,0.4,216.134,M,13.886,M,2.0,0031*47
[165138.00]
$GPGGA,175404.00,5540.4323298,N,03730.3259464,E,4,29,0.4,216.135,M,13.886,M,2.0,0031*40
[165139.00]
$GPGGA,175405.00,5540.4323299,N,03730.3259455,E,4,29,0.4,216.134,M,13.886,M,2.0,0031*43
[165140.00]
$GPGGA,175406.00,5540.4323298,N,03730.3259470,E,4,29,0.4,216.132,M,13.886,M,1.0,0031*43
[165141.00]
$GPGGA,175407.00,5540.4323293,N,03730.3259469,E,4,29,0.4,216.132,M,13.886,M,2.0,0031*42
[165142.00]
$GPGGA,175408.00,5540.4323289,N,03730.3259454,E,4,29,0.4,216.131,M,13.886,M,2.0,0031*4B
[165143.00]
$GPGGA,175409.00,5540.4323295,N,03730.3259446,E,4,29,0.4,216.130,M,13.886,M,2.0,0031*45
[165144.00]
$GPGGA,175410.00,5540.4323298,N,03730.3259458,E,4,29,0.4,216.132,M,13.886,M,1.0,0031*4E
[165145.00]
$GPGGA,175411.00,5540.4323302,N,03730.3259453,E,4,29,0.4,216.132,M,13.886,M,1.0,0031*46
[165146.00]
$GPGGA,175412.00,5540.4323301,N,03730.3259449,E,4,29,0.4,216.134,M,13.886,M,2.0,0031*48
[165147.00]
$GPGGA,175413.00,5540.4323297,N,03730.3259457,E,4,29,0.4,216.131,M,13.886,M,2.0,0031*4D
[165148.00]
$GPGGA,175414.00,5540.4323299,N,03730.3259467,E,4,29,0.4,216.130,M,13.886,M,1.0,0031*45
[165149.00]
$GPGGA,175415.00,5540.4323300,N,03730.3259473,E,4,29,0.4,216.132,M,13.886,M,1.0,0031*42
[165150.00]
$GPGGA,175416.00,5540.4323298,N,03730.3259470,E,4,29,0.4,216.130,M,13.886,M,2.0,0031*43
[165151.00]
$GPGGA,175417.00,5540.4323303,N,03730.3259459,E,4,29,0.4,216.129,M,13.886,M,2.0,0031*42
[165152.00]
$GPGGA,175418.00,5540.4323303,N,03730.3259448,E,4,29,0.4,216.128,M,13.886,M,2.0,0031*4C
[165153.00]
$GPGGA,175419.00,5540.4323286,N,03730.3259444,E,4,29,0.4,216.129,M,13.886,M,2.0,0031*4C
[165154.00]
$GPGGA,175420.00,5540.4323293,N,03730.3259453,E,4,29,0.4,216.132,M,13.886,M,1.0,0031*4D
[165155.00]
$GPGGA,175421.00,5540.4323291,N,03730.3259461,E,4,29,0.4,216.130,M,13.886,M,1.0,0031*4D
[165156.00]
$GPGGA,175422.00,5540.4323290,N,03730.3259460,E,4,29,0.4,216.130,M,13.886,M,2.0,0031*4D
[165157.00]
$GPGGA,175423.00,5540.4323294,N,03730.3259469,E,4,29,0.4,216.130,M,13.886,M,2.0,0031*41
[165158.00]
